LON,LAT,Application____KOAP__or_Class__Nursery_,Commercial,Organization,Last_known_Address,Last_Known_Contact_Name,Phone,Email,Web,County,Data_Source,Status__2023_,Instance__
-86.4491867,36.9014525,,,Coview Farm,"811 Coburg Road, Columbia, KY 42728",Darrell or Cathy Bunnell,(270) 384-5412,coviewfarm@hotmail.com,,Adair,Kentucky Proud Greenhouse Growers 2021,Unknown,1
-85.3242216,37.0859672,,,Luxury Lawn & Landscape,"1380 Burksesville Street, Columbia, KY 42728",Blake & Vicki Hatcher,(270) 384-3977,jbhatc3@uky.edu,vhatcher@cheerful.com,Adair,Kentucky Proud Greenhouse Growers 2021,Unknown,1
-85.466926,36.9326254,,,Shady Ridge Nursery,"100 Shady Ridge Lane, Breeding, KY 42715",Sandy Scott,,shadyridgenursery100@gmail.com,,Adair,Kentucky Proud Greenhouse Products 2021,Unknown,2
-85.34876,37.199083,,,Coview Farm,"811 Coburg Road, Columbia, KY 42728",Darrell or Cathy Bunnell,(270) 384-5412,coviewfarm@hotmail.com,,Adair,Kentucky Proud Greenhouse Products 2021,Unknown,2
-85.2997761,37.1151768,,,Day & Day Feed Mill,"1011 Campbellsville Road, Columbia, KY 42728",Julie Day,(270) 384-2209,daystrucking@duo-county.com,www.dayanddayfeed.com,Adair,Kentucky Proud Greenhouse Products 2021,Unknown,1
-85.3242216,37.0859672,,,Luxury Lawn & Landscape,"1380 Burksesville Street, Columbia, KY 42728",Blake & Vicki Hatcher,(270) 384-3977,jbhatc3@uky.edu,vhatcher@cheerful.com,Adair,Kentucky Proud Greenhouse Products 2021,Unknown,2
-85.2694784,37.120034,,,Tucker's Station Farms,"1535 Bull Run Road, Columbia, KY 42728",Barbara Armitage,(270) 250-2979,tuckers.station@gmail.com,www.TuckersStationFarms.com,Adair,Kentucky Proud Greenhouse Products 2021,Unknown,1
-85.3063504,37.102841,,,"Farmers' Market On The Square, LLC",", Columbia, KY 42728",Darrell Andrew,,darrell@duo-county.com,www.facebook.com/fm2columbia,Adair,Kentucky Proud Greenhouse Products 2021,Unknown,1
-85.296704,37.170307,,,Big Black Dog Farm,"862 L Jones Road, Columbia, KY 42728",Donna Jones,(270) 634-2125,jonesdonna1959@gmail.com,,Adair,Kentucky Proud Greenhouse Products 2021,Unknown,1
-85.2999684,37.1015362,,,Lindsey Wilson College Sea Program,"210 Lindsey Wilson St, Columbia, KY 42728",Douglas Keaton,(270) 384-8066,Keatond@lindsey.edu,,Adair,Kentucky Proud Greenhouse Products 2021,Unknown,1
-85.395413,37.06092,,,K & A Homestead,"2226 Jones Chapel Road, Columbia, KY 42728",Annie Greenwell,,Annienielsen87@yahoo.com,,Adair,Kentucky Proud Greenhouse Products 2021,Unknown,1
-85.2536911,37.1689385,,,Plant Cell Nursery,"262 Snake Creek Road, Columbia, KY 42728",Derek Nickel,(270) 634-2063,derek.nickel@lindsey.edu,,Adair,Kentucky Proud Greenhouse Products 2021,Unknown,1
-85.328244,37.126362,,,Richards Family Farm,"2075 Pelham Branch Road, Columbia, KY 42728",Brandi Richards,,bjrichards77@gmail.com,,Adair,Kentucky Proud Greenhouse Products 2021,Unknown,1
-85.227571,37.221723,,,Durbin Family Farm,"225 England Cook Road, Knifley, KY 42753",Teresa Durbin,(270) 384-6902,tdurbin66@gmail.com,,Adair,Kentucky Proud Greenhouse Products 2021,Unknown,1
-85.311266,37.108724,A,Yes,"Ironweed Native Plant Nursery, LLC","114 Stults St., Columbia, KY 42728-",Alicia Bosela,(270) 384-1352,asbiagi@gmail.com,,Adair,Kentucky Nursery Licenses 2021-2022,Unknown,1
-85.238158,37.0101558,A,Yes,Neil Harrelson,"8481 Highway 55 South, Columbia, KY 42728-",Neil Harrelson,(270) 670-5578,nharrelson08@gmail.com,,Adair,Kentucky Nursery Licenses 2021-2022,Unknown,1
-85.4613077,36.9918482,A,Yes,Oak Mountain Homestead,"1616 Chestnut Grove Rd, Columbia, KY 42728-",Katrina Sweeney,(270) 576-7917,oakmountainhomestead@gmail.com,,Adair,Kentucky Nursery Licenses 2021-2022,Unknown,1
-85.3282408,37.1076675,,No,Adair County High School,"526 Indian Drive, Columbia, KY 42728","Kirby Hancock, Randy Rexroat",,"kirby.hancock@adair.kyschools.us, randy.rexroat@adair.kyschools.us",,Adair,"Ag FFA Instructors, POWER counties",Unknown,1
-85.466926,36.9326254,A,Yes,Shady Ridge Nursery,"100 Shady Ridge Lane, Breeding, KY 42715-",Sandy J. Scott,(270) 791-3050,sandarrell77@yahoo.com,,Adair,Kentucky Nursery Licenses 2021-2022,Unknown,1
-86.219482,36.7424741,A2010?0053,No,Allen County Board of Education,"570 Oliver Street, Scottsville,",Randall Jackson,270?618?3181 Fax: 270?618?3185,,,Allen,KOAP Open Record Req. GHs,Unknown,1
-86.1807346,36.7986388,,,Dowell Farms,"301 Pruitt Lane, Scottsville, KY 42164",Brian L Dowell,(270) 622-5451,placidiom@yahoo.com (Bad email.DB,,Allen,Kentucky Proud Greenhouse Growers 2021,Unknown,1
-86.2527219,36.6701111,,,Quail Hollow Candle Factory & Gift Shop,"455 Andrew Jackson Way, Adolphus, KY 42120",Tee Kurelic,(270) 618-6600,quailhollowwax@nctc.com,www.quailhollowwax.com,Allen,Kentucky Proud Greenhouse Products 2021,Unknown,1
-86.1905424,36.7533781,,,Allen County Scottsville Farmers' Market,", Scottsville, KY 42164",Lori Hogue,(270) 237-1958,hoguefarms@outlook.com,www.allencountyfarmersmarket.com,Allen,Kentucky Proud Greenhouse Products 2021,Unknown,1
-86.3234543,36.7126997,,,"Habegger's Amish Market, Inc.","415 Perrytown Road, Scottsville, KY 42164",Martha & Michael Habegger,(270) 618-5676,habeggers_amish_market@hotmail.com,www.habeggersamishmarket.com,Allen,Kentucky Proud Greenhouse Products 2021,Unknown,1
-86.1807346,36.7986388,,,Dowell Farms,"301 Pruitt Lane, Scottsville, KY 42164",Brian L Dowell,(270) 622-5451,placidiom@yahoo.com (Bad email.DB,,Allen,Kentucky Proud Greenhouse Products 2021,Unknown,2
-86.195468,36.7536898,,,Bennett Family Farms,"409 West Main Street, Scottsville, KY 42164",Charles Bennett,(270) 237-5299,Chuck.Bennett@SouthernFinancialInsurance.com,,Allen,Kentucky Proud Greenhouse Products 2021,Unknown,1
-86.1855338,36.7720811,,,Fairy Hunter Herbs - Coffey Grounds Farms,"7893 Smith Grove Road, Scottsville, KY 42164",Britni Coffey,(270) 618-3537,britni@fairyhunterherbs.com,fairyhunterherbs.com,Allen,Kentucky Proud Greenhouse Products 2021,Unknown,1
-86.1406632,36.6576944,,,4 Acre Farm,"332 Eugene Keen Road, Scottsville, KY 42164",Josh Merideth,(270) 799-7524,joshmerideth@yahoo.com,,Allen,Kentucky Proud Greenhouse Products 2021,Unknown,1
-86.196198,36.747782,,,Ragan's Flowers,"515 Old Gallatin Road, Scottsville, KY 42164",Paul Ragan,(270) 237-7270,cherylragan@hotmail.com,facebook.com/Ragans-Flowers-679895815514659,Allen,Kentucky Proud Greenhouse Products 2021,Unknown,2
-86.1409692,36.8007472,A,Yes,Hartman Orchard and Nursery,"5215 New Glasgow Rd., Scottsville, KY 42164-",Steve Hartman,(270) 237-7325,hartman@nctc.com,,Allen,Kentucky Nursery Licenses 2021-2022,Unknown,1
-86.115846,36.723877,A,Yes,Nathan Morgan Tree Farm,"5200 Holland Road, Scottsville, KY 42164-",Nathan Morgan,(270) 779-5129,mrnthn8@aol.com,,Allen,Kentucky Nursery Licenses 2021-2022,Unknown,1
-86.1964403,36.7503805,A,Yes,Ragan's Flowers,"810 West Main St., Scottsville, KY 42164-",Paul Ragan,(270) 237-7270,cherylragan@hotmail.com,,Allen,Kentucky Nursery Licenses 2021-2022,Unknown,1
-86.3427851,36.7426457,A,Yes,Shady Maple Greenhouse,"4961 Old Franklin Rd, Scottsville, KY 42164-",Leroy Habegger,,,,Allen,Kentucky Nursery Licenses 2021-2022,Unknown,1
-86.335981,36.7280919,A,Yes,Windy Hill Greenhouses,"1644 Shores Rd., Scottsville, KY 42164-",Dietrich and Rebecca Penner,,,,Allen,Kentucky Nursery Licenses 2021-2022,Unknown,1
-84.848251,37.9774624,,,Bluebird Hill Farm,"1311 Gilbert's Creek Road, Lawrenceburg, KY 40342",Cheryl Snow,(502) 517-1705,bckhsnow@gmail.com,,Anderson,Kentucky Proud Greenhouse Growers 2021,Unknown,2
-84.9207158,38.0640066,,,Anderson County Farmers' Market (The Old Depot),"1505 Bypass North, Lawrenceburg, KY 40342",Bob Snow,,andersonfarmersky@gmail.com,www.facebook.com/andersoncofarmersmarket,Anderson,Kentucky Proud Greenhouse Products 2021,Unknown,1
-84.8433023,38.0167699,,,Honey & Herbs On Wildcat,"1458 Wildcat Road, Lawrenceburg, KY 40342",Barbara Gillette,(502) 859-3909,bgwrite9@yahoo.com.,,Anderson,Kentucky Proud Greenhouse Products 2021,Unknown,1
-84.9176176,38.076572,,,Tres Gotos Farm,"Anderson Co Farmers Market, Lawrenceburg, KY 40342",Michael E Webb,(859) 806-9224,chefwebb@yahoo.com,,Anderson,Kentucky Proud Greenhouse Products 2021,Unknown,1
-84.859471,37.980779,,,Rough Draft Farmstead,"1295 Gilbert's Creek Road, Lawrenceburg, KY 40342",Jesse Frost,(502) 598-8288,roughdraftfarmstead@gmail.com,www.roughdraftfarmstead.com,Anderson,Kentucky Proud Greenhouse Products 2021,Unknown,1
-85.060201,37.950498,,,Cedar Springs,"1368 Mays Road, Lawrenceburg, KY 40342",Kim Butcher,(859) 396-6914,Kimsunley74@gmail.com,,Anderson,Kentucky Proud Greenhouse Products 2021,Unknown,1
-84.848251,37.9774624,,,Bluebird Hill Farm,"1311 Gilbert's Creek Road, Lawrenceburg, KY 40342",Cheryl Snow,(502) 517-1705,bckhsnow@gmail.com,,Anderson,Kentucky Proud Greenhouse Products 2021,Unknown,3
-84.8871384,37.9758186,,,"Drake Ridge Farms U-Pick, LLC","1110 Bondsmill Road, Lawrenceburg, KY 40342",Sam Drake,(502) 751-8402,samdrakejr@gmail.com,,Anderson,Kentucky Proud Greenhouse Products 2021,Unknown,1
-84.988932,38.124698,A,Yes,Backwoods Garden and Nursery,"575 Avenstoke Road, Waddy, KY 40076-",Josh Sparks,(859) 699-9512,sparkysloj@gmail.com,,Anderson,Kentucky Nursery Licenses 2021-2022,Unknown,1
-84.8539284,37.9779006,A,Yes,Bluebird Hill Farm,"1305 Gilbert's Creek Rd., Lawrenceburg, KY 40342-",Cheryl Snow,(502) 517-1705,bluebirdhillfarmky@gmail.com,,Anderson,Kentucky Nursery Licenses 2021-2022,Unknown,1
-85.0336578,37.9927265,A,Yes,"Chicory Hollow Farm, LLC","1161 Dennis Road, Lawrenceburg, KY 40342-",James & Pamela Holbrook,(859) 559-2515,chicoryhollowfarm@gmail.com,,Anderson,Kentucky Nursery Licenses 2021-2022,Unknown,1
-84.8535556,37.9792728,A,Yes,Daylily World,"1301 Gilberts Creek Road, Lawrenceburg, KY 40342-",David Kirchhoff,(407) 416-9119,hybridizer@aol.com,,Anderson,Kentucky Nursery Licenses 2021-2022,Unknown,1
-88.9897537,37.0660732,A2014?0214,No,Ballard County Board of Education,"11 Vocational School Drive, Barlow, KY 42024",,270.665.8400 Fax: 270.665.9844,brian.jarvis@ballard.kyschools.us,,Ballard,KOAP Open Record Req. GHs,Unknown,1
-88.8333715,37.0687177,,,Simply Preserved,"3580 Hobbs Rd, Kevil, KY 42053",Georgia Nichols,(270) 816-5330,gnichols3580@gmail.com,,Ballard,Kentucky Proud Greenhouse Products 2021,Unknown,1
-88.9736762,37.0767199,,,Ballard County Farmers' Market,", La Center, KY 42056",Tracy Hobbs,(270) 462-2394,thobbs@brtc.net,www.facebook.com/BallardCountyFM/,Ballard,Kentucky Proud Greenhouse Products 2021,Unknown,1
-85.9573373,37.1373603,,,Sugar Sank,"213 Broadway Street, Cave City, KY 42127",Marla Bush,(270) 537-4122,sugarsank3@gmail.com,,Barren,Kentucky Proud Greenhouse Growers 2021,Unknown,1
-85.922804,37.1282039,,,Sacred Seed Farm,"552 Wilson Childress Road, Cave City, KY 42127",Chad Wilson,(270) 202-5525,sacredseedfarm@gmail.com,,Barren,Kentucky Proud Greenhouse Growers 2021,Unknown,2
-85.880615,36.94869,,,Retreat Greenhouse Co.,"3728 Tompkinsville Road, Glasgow, KY 42141",Lori Poynter,(270) 670-8158,lcpoynter@yahoo.com,,Barren,Kentucky Proud Greenhouse Growers 2021,Unknown,1
-85.990986,37.1130137,,,C & F Mums,"28351 Louisville Road, Cave City, KY 42127",Cassie Herald,(270) 773-2950,Cherald8904@gmail.com,,Barren,Kentucky Proud Greenhouse Products 2021,Unknown,1
-85.9788814,37.1033406,,,Turner Farms,"561 Old Happy Valley Rd, Cave City, KY 42127",Katina Turner,(270) 773-3783,kturner@scrtc.com,,Barren,Kentucky Proud Greenhouse Products 2021,Unknown,1
-85.9573373,37.1373603,,,Sugar Sank,"213 Broadway Street, Cave City, KY 42127",Marla Bush,(270) 537-4122,sugarsank3@gmail.com,,Barren,Kentucky Proud Greenhouse Products 2021,Unknown,2
-85.9884536,37.0827051,,,Gossett Farms,"5331 Stovall Road, Cave City, KY 42127",Dusty Gossett,(270) 670-9736,gossettfarms@icloud.com,,Barren,Kentucky Proud Greenhouse Products 2021,Unknown,1
-85.922804,37.1282039,,,Sacred Seed Farm,"552 Wilson Childress Road, Cave City, KY 42127",Chad Wilson,(270) 202-5525,sacredseedfarm@gmail.com,,Barren,Kentucky Proud Greenhouse Products 2021,Unknown,3
-85.9119215,36.9958839,,,Bounty Of The Barrens Farmers' Market,", Glasgow, KY 42141",Josh Johnson,(270) 646-7357,brandi.button@outlook.com,www.bountyofthebarrens.com,Barren,Kentucky Proud Greenhouse Products 2021,Unknown,1
-85.823913,36.963445,,,Fox Bottom Farms,"2771 Lick Branch Road, Glasgow, KY 42141",Stephen Gibbons,(270) 590-8567,foxbottomfarms@yahoo.com,,Barren,Kentucky Proud Greenhouse Products 2021,Unknown,1
-86.0681908,36.9275161,,,Button's Wharf,"1120 Settles Road, Glasgow, KY 42141",Charles Button,(270) 646-2179,dbutton@scrtc.com,,Barren,Kentucky Proud Greenhouse Products 2021,Unknown,1
-85.818375,36.909123,,,The Lilly Pad,"197 Barbour Cemetery R, Glasgow, KY 42141",Debbie Billingsley,(270) 427-4707,ddjjw123@gmail.com,,Barren,Kentucky Proud Greenhouse Products 2021,Unknown,1
-86.0862919,36.9276406,,,Lake Berry Farm,"349 Cooks Creek Trail, Glasgow, KY 42141",Ray & Nancy Haggerty,,raynancy@scrtc.com,,Barren,Kentucky Proud Greenhouse Products 2021,Unknown,1
-85.880615,36.94869,,,Retreat Greenhouse Co.,"3728 Tompkinsville Road, Glasgow, KY 42141",Lori Poynter,(270) 670-8158,lcpoynter@yahoo.com,,Barren,Kentucky Proud Greenhouse Products 2021,Unknown,2
-86.046367,37.0939375,,,Esters Farm,"1637 PO Box Ayr Road, Park City, KY 42160",Gabe Esters,(270) 670-6978,estersfarm@windstream.net,www.estersfarm.com,Barren,Kentucky Proud Greenhouse Products 2021,Unknown,1
-85.9463624,36.963991,A,Yes,"Barren Wholesale Greenhouses, Inc.","2920 Scottsville Road, Glasgow, KY 42141-",James T.Wesley,(270) 678-6669,wesleyjt@scrtc.com,,Barren,Kentucky Nursery Licenses 2021-2022,Unknown,1
-85.8556064,36.9768452,A,Yes,"Grassy Roads, LLC dba Busy Bee Nursery","2083 Hollow Rd., Glasgow, KY 42141-",Shannon Trimboli,(270) 202-7677,busybee@shannontrimboli.com,,Barren,Kentucky Nursery Licenses 2021-2022,Unknown,1
-85.9466218,36.9647332,B,Yes,Green Leaf Nursery Inc.,"2918 Scottsville Road, Glasgow, KY 42141-",Traci Briggs/Grant Woodward,(270) 678-4662,greenleafglasgowky@gmail.com,,Barren,Kentucky Nursery Licenses 2021-2022,Unknown,1
-85.9494157,37.0115809,A,Yes,"Luxury Garden Center, Inc.","1757 W. Main St., Glasow, KY 42141-",Kevin/Lacey Kerr,(270) 678-5555,luxurygardencenter@outlook.com,,Barren,Kentucky Nursery Licenses 2021-2022,Unknown,1
-85.922804,37.1282039,A,Yes,Sacred Seed Farm,"552 Wilson Childress Rd., Cave city, KY 42127-",Chad Wilson,(270) 202-5525,sacredseedfarm@gmail.com,,Barren,Kentucky Nursery Licenses 2021-2022,Unknown,1
-85.9463624,36.963991,,Yes,Barren Wholesale Greenhouses,"2920 Scottsville Rd, Glasgow, KY 42141",Jim Wesley,2706786669,,,Barren,KGA Commercial Directory,Unknown,2
-83.7132604,38.0576753,,,Timber & Steel Farm,"1299 Old State Road, Owingsville, KY 40360",Corey Cox,(606) 776-1760,coreycox1760@gmail.com,,Bath,Kentucky Proud Greenhouse Growers 2021,Unknown,1
-83.841568,38.219105,,,Flat Creek Farm,"1582 Shields Road, Sharpsburg, KY 40374",Elam B. Stoltzfus,,,,Bath,Kentucky Proud Greenhouse Growers 2021,Unknown,1
-83.7640847,38.1448015,,,Bath County Farmers' Market,", Owingsville, KY 40360",Rob Amburgey,(606) 674-6121,ramburge@uky.edu,www.facebook.com/bathkyfarmersmarket,Bath,Kentucky Proud Greenhouse Products 2021,Unknown,1
-83.7339227,38.1965005,,,Butcher & Son Farms,"4311 Wyoming Road, Owingsville, KY 40360",Chris Butcher,(606) 674-2246,cbutcher3@yahoo.com,,Bath,Kentucky Proud Greenhouse Products 2021,Unknown,1
-83.7485282,38.1508452,,,"""DBA"" Slate Creek Creations","294 Wyoming Road, Owingsville, KY 40360",Lori Mcalister,(606) 336-5400,slatecreekcreations@gmail.com,,Bath,Kentucky Proud Greenhouse Products 2021,Unknown,1
-83.705236,38.114382,,,Half Pike Acres,"1720 Hart Pike, Owingsville, KY 40360",Darla Mann,(859) 629-5980,halfpikeacres@gmail.com,,Bath,Kentucky Proud Greenhouse Products 2021,Unknown,1
-83.7132604,38.0576753,,,Timber & Steel Farm,"1299 Old State Road, Owingsville, KY 40360",Corey Cox,(606) 776-1760,coreycox1760@gmail.com,,Bath,Kentucky Proud Greenhouse Products 2021,Unknown,2
-83.6246583,38.1775406,,,Withrow Farms,"1551 Vanlandingham Road, Salt Lick, KY 40371",Krissy Withrow,(606) 356-5516,krissy_mckenzie44@hotmail.com,,Bath,Kentucky Proud Greenhouse Products 2021,Unknown,1
-83.9293681,38.2020214,,,Pecks Farm Supply,"627 Main Street PO Box 156, Sharpsburg, KY 40374",Curtis Gregory,(606) 247-2421,pecksfarmsup@windstream.net,,Bath,Kentucky Proud Greenhouse Products 2021,Unknown,1
-83.870813,38.240938,,,Bethal Produce,"304 Bethel Ridge Road, Sharpsburg, KY 40374",Daniel V. Zook,(606) 247-4788,,,Bath,Kentucky Proud Greenhouse Products 2021,Unknown,1
-83.85611468,38.20457763,,,Mulberry Ridge Organics,"7386 Veterans Memorial Hwy., Sharpsburg, KY 40374",John Stoltzfus,,,,Bath,Kentucky Proud Greenhouse Products 2021,Unknown,1
-83.7767563,38.1372332,,No,Bath County High School,"645 Chenault Drive, Owingsville, KY 40360","Joe Hammons, Chris Howard",,"jon.hammons@bath.kyschools.us, chris.howard@bath.kyschools.us",,Bath,"Ag FFA Instructors, POWER counties",Unknown,1
-83.9294817,36.6417749,,No,Henderson Settlement,"16773 Highway 190, Frakes, KY 40940",Casey Smith,(606) 337-3613,missadv2@hsumc.org,hendersonsettlement.org,Bell,Kentucky Proud Greenhouse Growers 2021,Unknown,1
-83.9294817,36.6417749,,No,Henderson Settlement United Methodist Mission,"16773 Highway 190, Frakes, KY 40940",Richard Mason,(606) 337-3613,farm@hsumc.org,www.hendersonsettlement.com,Bell,Kentucky Proud Greenhouse Growers 2021,Unknown,1
-83.6966681,36.7616896,,,Clover Creek Farm,"7676 Highway 190, Pineville, KY 40977",Richard Mason,(606) 337-6787,clover_creek_farm@hotmail.com,www.facebook.com/clovercreekfarm,Bell,Kentucky Proud Greenhouse Growers 2021,Unknown,1
-83.9294817,36.6417749,,,Henderson Settlement,"16773 Highway 190, Frakes, KY 40940",Casey Smith,(606) 337-3613,missadv2@hsumc.org,hendersonsettlement.org,Bell,Kentucky Proud Greenhouse Products 2021,Unknown,2
-83.9294817,36.6417749,,,Henderson Settlement United Methodist Mission,"16773 Highway 190, Frakes, KY 40940",Richard Mason,(606) 337-3613,farm@hsumc.org,www.hendersonsettlement.com,Bell,Kentucky Proud Greenhouse Products 2021,Unknown,2
-83.9638426,36.6185504,,,Henderson Settlement Farmers' Market,", Frakes, KY 40940",Casey Smith,(606) 337-3613,missadv2@hsumc.org,www.hendersonsettlement.com,Bell,Kentucky Proud Greenhouse Products 2021,Unknown,1
-83.79678,36.704641,,,Clover Creek Farm,"7676 Highway 190, Pineville, KY 40977",Richard Mason,(606) 337-6787,clover_creek_farm@hotmail.com,www.facebook.com/clovercreekfarm,Bell,Kentucky Proud Greenhouse Products 2021,Unknown,2
-83.6914603,36.7127296,,No,Bell County High School,"9824 US Hwy 25-E, Pineville, KY 40977",Kevin Napier,,kevin.napier@bell.kyschools.us,,Bell,"Ag FFA Instructors, POWER counties",Unknown,1
-84.7651143,39.0150878,,,Kinman Farms,"4175 Burlington Pike, Burlington, KY 41005",Aaron Anderson,(859) 689-2682,kinmanfarms@aol.com,www.kinmanfarm.com,Boone,Kentucky Proud Greenhouse Products 2021,Unknown,1
-84.7241133,39.02756,,,Boone County Farmers Market,", Burlington, KY 41005",Coy Wilson,(859) 586-6101,coy.wilson@uky.edu,www.boonecountyfarmersmarket.org,Boone,Kentucky Proud Greenhouse Products 2021,Unknown,1
-84.7651143,39.1113316,,,Merrell Family Farm,"896 Merrell Road, Hebron, KY 41048",Randy Merrell,(859) 630-5480,katheyhbr@aol.com,,Boone,Kentucky Proud Greenhouse Products 2021,Unknown,1
-84.6333808,38.934405,,,Baeten's Nursery & Greenhouse,"364 Frogtown Road, Union, KY 41091",Jeff or Todd Baeten,(859) 384-4769,baetensnursery@fuse.net,www.baetensnursery.com,Boone,Kentucky Proud Greenhouse Products 2021,Unknown,2
-84.6982644,38.7794587,,,"Circle ""H"" Ranch","705 Tower Drive, Verona, KY 41092",Aaron Holladay,(513) 706-9791,aaron@theassuregroup.com,CircleHLivestock.com,Boone,Kentucky Proud Greenhouse Products 2021,Unknown,1
-84.703086,38.824608,,,"RKS, LLC","14480 Brown Road, Verona, KY 41092",Kelly Simpson,(859) 380-7978,kelly.erin@hotmail.com,,Boone,Kentucky Proud Greenhouse Products 2021,Unknown,1
-84.6740438,38.877472,,,Pine Hill Farm,"1447 Beaver Rd, Walton, KY 41094",Bernie Or Eve Vaske,(859) 485-4514,rebeccautz@allstate.com,,Boone,Kentucky Proud Greenhouse Products 2021,Unknown,1
-84.59616,38.9329532,,,Natalie's Garden,"870 Maher Road, Walton, KY 41094",Nataliya Parker,(859) 371-5100,npark222@aol.com,,Boone,Kentucky Proud Greenhouse Products 2021,Unknown,1
-84.6068424,38.8522442,,,Lou Lou's Market,"565 Panzeretta Drive, Walton, KY 41094",Lindsey Hyden,(859) 609-7202,lindsey.17.05.02@gmail.com,,Boone,Kentucky Proud Greenhouse Products 2021,Unknown,1
-84.6183548,38.8635032,,,Blue & Gold Meat And Eggs,"30 School Road, Walton, KY 41094",Alexandra Oeder,(859) 485-7721,alex.sluder@wv.kyschools.us,,Boone,Kentucky Proud Greenhouse Products 2021,Unknown,1
-84.6102213,38.8756194,,,Walton-Verona HIgh School FFA Farmers' Market,", Walton, KY 41094",Alex Sluder,(859) 485-7721,alex.sluder@wv.kyschools.us,https://www.facebook.com/WaltonVeronaHSFFA/,Boone,Kentucky Proud Greenhouse Products 2021,Unknown,1
-84.8275498,38.986181,A,Yes,Ammon Farm,"Belleview Petersburg Road, Petersburg, KY 41080-",Greg Ammon,(859) 586-6246,ccrowder@ammonplants.com,,Boone,Kentucky Nursery Licenses 2021-2022,Unknown,1
-84.7034845,39.0189482,A,Yes,Ammon Wholesale,"6089 Camp Ernst Road, Burlington, KY 41005-",Greg Ammon,(859) 586-6246,ccrowder@ammonplants.com,,Boone,Kentucky Nursery Licenses 2021-2022,Unknown,1
-84.6333808,38.934405,A,Yes,Baeten's Nursery & Greenhouse Inc.,"364 Frogtown Road, Union, KY 41091-",Jeff Baeten/Todd Baeten,(859) 384-4769,,,Boone,Kentucky Nursery Licenses 2021-2022,Unknown,1
-84.6305058,38.9809337,A,Yes,"Bloomsz, LLC","7430 Industrial Rd., Florence, KY 41042-",Hans Philippo,(877) 811-8681,info@bloomsz.com,,Boone,Kentucky Nursery Licenses 2021-2022,Unknown,1
-84.6565152,39.0106172,A,Yes,"Gardeners First Choice, LLC","983 Colony Dr., Florence, KY 41042-",James E. Merkle,(859) 653-5303,JKMerkle@twc.com,,Boone,Kentucky Nursery Licenses 2021-2022,Unknown,1
-84.689416,38.946786,A,Yes,Happy Tree Farm,"2144 Hathaway Road, Union, KY 41091-",Martha Ferguson,(859) 653-0143,mominunion@gmail.com,,Boone,Kentucky Nursery Licenses 2021-2022,Unknown,1
-84.6188046,38.9645334,A,Yes,Maddox Garden Center,"8430 Dixie Highway, Florence, KY 41042-",Robert & Scott Maddox,(859) 371-6340,maddoxgc@fuse.net,,Boone,Kentucky Nursery Licenses 2021-2022,Unknown,1
-84.6355785,39.0092449,A,Yes,Ridgecrest Farm,"9059 Hominy Ridge Rd, Florence, KY 47020-",Caulette Talbert,(859) 640-3729,Ridgecrestfarmin@gmail.com,,Boone,Kentucky Nursery Licenses 2021-2022,Unknown,1
-84.7026262,39.0293393,A,Yes,"Rightway Nursery, Inc.","5529 Highway 237, Burlington, KY 41005-",Sandy Wright,(859) 586-6422,rightwaynursery@yahoo.com,,Boone,Kentucky Nursery Licenses 2021-2022,Unknown,1
-84.75922,39.1289545,A,Yes,Sand Run Nursery & Preserve,"9063 River Road, Hebron, KY 41048-","Mary & Paul Hemmer, Jr.",(859) 578-1800,phemmer@paulhemmer.com,,Boone,Kentucky Nursery Licenses 2021-2022,Unknown,1
-84.6568421,38.9637791,,Yes,Wilson Nursery,"9230 Gunpowder Rd, Florence, KY 41042",Todd Wilson,6063717420,,,Boone,KGA Commercial Directory,Unknown,1
-84.2740902,38.1924952,A2020?0198,No,Bourbon County Board of Education,3343 Lexington Road Paris KY 40361,,,tara.wolfenbarger@bourbon.kyschools.us,,Bourbon,KOAP Open Record Req. GHs,Unknown,1
-84.2548162,38.2071137,A2017?0200,No,Catholic Diocese of Lexington (St. Mary School),"1121 Main St, Paris, KY 40361",Miranda Chaplin,(859) 987?3815,mchaplin@cdlex.org,,Bourbon,KOAP Open Record Req. GHs,Unknown,1
-84.2873337,38.1970043,,,The Farm At Landworks,"246 Hume Bedford Road, Paris, KY 40361",Lynne & Andrew Perraut,(859) 987-1266,info@landworksoutdoorcreations.com,www.thefarmatlandworks.com,Bourbon,Kentucky Proud Greenhouse Growers 2021,Unknown,2
-84.151838,38.117138,,,Wood Dell Tilth,"991 Thatchers Mill Rd, Paris, KY 40361",Walker Hancock,,wooddelltilth@yahoo.com,,Bourbon,Kentucky Proud Greenhouse Growers 2021,Unknown,1
-84.2569352,38.1266279,,,"Southerland's Greenhouses, Inc.","1895 Clintonville Road, Paris, KY 40361",Brynn Deaton,(859) 987-6807,brynn@southerlands.com,southerlands.com,Bourbon,Kentucky Proud Greenhouse Growers 2021,Unknown,1
-84.155062,38.222385,,,AgTech Scientific Corp.,"1077 Cane Ridge Road, Paris, KY 40361",Steve Sloan,(859) 988-6500,steve.s@colorpoint.us,agtechscientific.com,Bourbon,Kentucky Proud Greenhouse Growers 2021,Unknown,1
-84.2529869,38.2097987,,,Paris-Bourbon County Farmers' Market,", Paris, KY 40361",Gwen Dever,(859) 987-6614,pbcfarmers@gmail.com,www.bourboncountyfarmersmarket.com,Bourbon,Kentucky Proud Greenhouse Products 2021,Unknown,1
-84.3351623,38.1548429,,,Garey Farms,"5151 Lexington Road, Paris, KY 40361",David & Carla Garey,(859) 987-3432,gareyfarms@gmail.com,,Bourbon,Kentucky Proud Greenhouse Products 2021,Unknown,1
-84.2838586,38.2827633,,,Stonehome Farm,"2929 Peacock Rd, Paris, KY 40361",Robert Stone,(859) 987-4964,,,Bourbon,Kentucky Proud Greenhouse Products 2021,Unknown,1
-84.388641,38.275504,,,Sigoglin Hills,"741 Collins Rd, Paris, KY 40361",Jessica Mayes or Byron Bell,(859) 619-5036,jmayes741@gmail.com,,Bourbon,Kentucky Proud Greenhouse Products 2021,Unknown,1
-84.2873337,38.1970043,,,The Farm At Landworks,"246 Hume Bedford Road, Paris, KY 40361",Lynne & Andrew Perraut,(859) 987-1266,info@landworksoutdoorcreations.com,www.thefarmatlandworks.com,Bourbon,Kentucky Proud Greenhouse Products 2021,Unknown,3
-84.245941,38.260883,,,Winterberry Farm,"1240 Currentsville Rd, Paris, KY 40361",Glenn R. Thompson,,gtwinterberry@aol.com,,Bourbon,Kentucky Proud Greenhouse Products 2021,Unknown,1
-84.2569352,38.1266279,,,"Southerland's Greenhouses, Inc.","1895 Clintonville Road, Paris, KY 40361",Brynn Deaton,(859) 987-6807,brynn@southerlands.com,southerlands.com,Bourbon,Kentucky Proud Greenhouse Products 2021,Unknown,2
-84.327452,38.282364,A,Yes,Hines Farm,"679 Townsend Valley Rd., Paris, KY 40361-",Douglas Hines,(859) 987-1211,sanddhines@aol.com,,Bourbon,Kentucky Nursery Licenses 2021-2022,Unknown,1
-84.2658321,38.1954945,A,Yes,"Leafhopper Landscaping, LLC","1907 Primrose Path, Paris, KY 40361-",Dale Epperson,(859) 644-9122,epperson@email.com,,Bourbon,Kentucky Nursery Licenses 2021-2022,Unknown,1
-84.3405861,38.0986795,A,Yes,Natural Products Ent.,"4004 Houston Antioch Rd., Lexington, KY 40516-",Will Overbeck,(859) 396-2319,willwoverbeck@aol.com,,Bourbon,Kentucky Nursery Licenses 2021-2022,Unknown,1
-84.226376,38.154019,A,Yes,Oakland Farms,"1608 Winchester Rd., Paris, KY 40361-",Doug Witt,(859) 983-5443,dwitt16391@aol.com,,Bourbon,Kentucky Nursery Licenses 2021-2022,Unknown,1
-84.2432734,38.2162689,B,Yes,Rail's End Nursery,"143 East Main, Paris, KY 40361-",Larry Adams,(859) 987-9155,,,Bourbon,Kentucky Nursery Licenses 2021-2022,Unknown,1
-84.2559888,38.2263018,A,Yes,Smits Florists and Greenhouses,"700 Old Peacock Road, Paris, KY 40362-",David Smits,(859) 987-3967,,,Bourbon,Kentucky Nursery Licenses 2021-2022,Unknown,1
-84.4019695,38.2237724,A,Yes,Sodworks LLC,"3000 Georgetown Road, Paris, KY 40361-",John Mahan,(859) 294-4763,Shannon@sodworksky.com,,Bourbon,Kentucky Nursery Licenses 2021-2022,Unknown,1
-84.2873337,38.1970043,A,Yes,The Farm at Landworks,"246 Hume Bedford Rd., Paris, KY 40361-",Drew Perraut,(859) 987-1266,info@thefarmatlandworks.com,,Bourbon,Kentucky Nursery Licenses 2021-2022,Unknown,1
-84.2817185,38.0853933,A,Yes,Thoroughbred Daylilies,"6615 Briar Hill Road, Paris, KY 40361-",John & Annette Rice,(859) 435-0000,AnnettesMagic@att.net,,Bourbon,Kentucky Nursery Licenses 2021-2022,Unknown,1
-84.2569352,38.1266279,,Yes,Southerland Greenhouse,"1895 Clintonville Rd, Paris, KY 40361",Will Southerland,6069876807,,,Bourbon,KGA Commercial Directory,Unknown,3
-82.7313443,38.4436234,,,Tamie Graham Produce,"8105 Route 5, Ashland, KY 41102",Tamara Graham,(606) 232-2443,phone@grahamtwoway.com (Bad email.DB,,Boyd,Kentucky Proud Greenhouse Growers 2021,Unknown,1
-82.6651587,38.3985914,,,McCartys Greenhouse & Pumpkin Farm,"4510 Cannonsburg Road, Catlettsburg, KY 41129",Beth Mccarty,(606) 465-3079,bthmcrt@yahoo.com,,Boyd,Kentucky Proud Greenhouse Growers 2021,Unknown,1
-82.6537455,38.4803833,,,Boyd County Farmers' Market,", Ashland, KY 41101",Lori Bowling,(606) 739-5184,lori.bowling@uky.edu,https://boyd.ca.uky.edu/content/farmers-market?fbclid=IwAR1-WSloYOb5Bx,Boyd,Kentucky Proud Greenhouse Products 2021,Unknown,1
-82.7313443,38.4436234,,,Tamie Graham Produce,"8105 Route 5, Ashland, KY 41102",Tamara Graham,(606) 232-2443,phone@grahamtwoway.com (Bad email.DB,,Boyd,Kentucky Proud Greenhouse Products 2021,Unknown,2
-82.6651587,38.3985914,,,McCartys Greenhouse & Pumpkin Farm,"4510 Cannonsburg Road, Catlettsburg, KY 41129",Beth Mccarty,(606) 465-3079,bthmcrt@yahoo.com,,Boyd,Kentucky Proud Greenhouse Products 2021,Unknown,2
-82.7673568,38.2984619,,,Back Acher Farms,"20510 Route 854, Rush, KY 41168",Tim Wiley,(606) 928-4484,timpwiley@yahoo.com,Facebook/backacherfarms,Boyd,Kentucky Proud Greenhouse Products 2021,Unknown,1
-82.7078172,38.4181531,B,Yes,"Brown Landscape Management, LLC","8329 Meade Springer Rd., Ashland, KY 41102-",Alexander M. Brown,(606) 928-0030,Alex@Landscapesbybrown.com,,Boyd,Kentucky Nursery Licenses 2021-2022,Unknown,1
-82.7803168,38.339597,A,Yes,Wildwood Nursery,"19700 State Route 854, Rush, KY 41168-",Ed Childers,(606) 928-9295,,,Boyd,Kentucky Nursery Licenses 2021-2022,Unknown,1
-82.7024227,38.376886,,No,Boyd County Career and Technical Ed Center,"12300 Midland Trail Road, Ashland, KY 41102",Joe Childers,,joe.childers@boyd.kyschools.us,,Boyd,"Ag FFA Instructors, POWER counties",Unknown,1
-82.7169441,38.3732179,,No,Boyd County High School,"14375 Lions Lane, Ashland, KY 41102",Julie Criss Helton,,julie.helton@boyd.kyschools.us,,Boyd,"Ag FFA Instructors, POWER counties",Unknown,1
-82.710803,38.387482,,Yes,Cannonsburg Greenhouse,"1703 Cannonsburg Rd, Ashland, KY 41102",Bob and Jane Conley,6069288955,,,Boyd,KGA Commercial Directory,Unknown,1
-84.8017175,37.6544439,A2008?0451,No,The Boyle County Foundation,"101 Citation Drive Suite C, Danville, KY 40422",,(859) 236-6634,mike.lafavers@boyle.kyschools.us,,Boyle,KOAP Open Record Req. GHs,Unknown,1
-84.7721702,37.6456329,,,Boyle County Farmers' Market,", Danville, KY 40422",Jeff Jewel,(859) 236-2361,boyleco.farmersmarket@gmail.com,www.eatlocaldanville.org,Boyle,Kentucky Proud Greenhouse Products 2021,Unknown,1
-84.7721167,37.6511902,,,Gaining Ground Farm,"403 North 3rd Street, Danville, KY 40422",Mike Lewis,(606) 392-3312,cridgefarm@gmail.com,www.gaininggroundfarm.org,Boyle,Kentucky Proud Greenhouse Products 2021,Unknown,1
-84.8921537,37.6919729,,,"Mozybeau Farms, Inc.","656 Lower Salt River Road, Danville, KY 40422",Sidney Ratliff,(859) 229-4202,psratliff@live.com,,Boyle,Kentucky Proud Greenhouse Products 2021,Unknown,1
-84.7691317,37.6390923,,,Kentucky School For The Deaf Farm & Research Center,"303 South 2Nd Street, Danville, KY 40423",Sandra Smock,(859) 239-7017,sandra.smock@ksd.kyschools.us,www.ksd.kyschools.us,Boyle,Kentucky Proud Greenhouse Products 2021,Unknown,1
-84.8457125,37.5700533,,,Hickory Run Farm,"735 Nosco Road, Junction City, KY 40440",Linda & Gaylord Hatcher,(859) 854-0440,lhatcher735@gmail.com,,Boyle,Kentucky Proud Greenhouse Products 2021,Unknown,1
-84.891128,37.526744,,,Big Holler Farm,"3746 Butchertown Road, Parksville, KY 40464",Kathie Campbell-Williams,(606) 346-5172,kathie100@hotmail.com,,Boyle,Kentucky Proud Greenhouse Products 2021,Unknown,1
-84.7892761,37.6452072,A,Yes,ExtraFlora,"1108 Sycamore Street, Danville, KY 40422-",Judson Collins,(606) 794-6333,judsonjamescollins@gmail.com,,Boyle,Kentucky Nursery Licenses 2021-2022,Unknown,1
-84.8559176,37.5944704,A,Yes,Fibbe Family Homestead,"4625 Alum Springs Rd., Danville, KY 40422-",Jessica Fibbe,(859) 324-9269,jessicafibbe@gmail.com,,Boyle,Kentucky Nursery Licenses 2021-2022,Unknown,1
-84.702706,37.6159729,A,Yes,May's Acres Daylilies,"2150 Chrisman Lane, Danville, KY 40422-",Elena May,(859) 236-3956,jetche3@yahoo.com,,Boyle,Kentucky Nursery Licenses 2021-2022,Unknown,1
-84.7782465,37.5861681,B,Yes,"Pack's Nursery & Landscaping, LLC","4160 Hustonville Road, Junction City, KY 40440-",Christopher Davis,(859) 854-3901,packsnursery@hotmail.com,,Boyle,Kentucky Nursery Licenses 2021-2022,Unknown,1
-84.825294,37.595749,A,Yes,Thornton Farms,"510 Yates Rd., Junction City, KY 40440-",Nada Thornton,(573) 421-1033,nada-haany83@hotmail.com,,Boyle,Kentucky Nursery Licenses 2021-2022,Unknown,1
-84.7917834,37.638455,,Yes,Stonegate Gardens,"1318 Lebanon Rd, Danville, KY 40422-9601",Steve King,6062366846,,,Boyle,KGA Commercial Directory,Unknown,1
-84.0659694,38.7422013,,,The Greenhouse in Gertrude,"3246 Augusta-Berlin Road, Brooksville, KY 41004",Drue Hyrcza,(606) 756-3971,adm122@windstream.net,,Bracken,Kentucky Proud Greenhouse Growers 2021,Unknown,1
-84.047854,38.6544219,,,"Lavender Hills Of Kentucky, LLC","229 Conrad Ridge Road, Brooksville, KY 41004",Judy Brothers,(606) 735-3355,dscaringi@twc.com,www.lavenderhillsofkentucky.com,Bracken,Kentucky Proud Greenhouse Products 2021,Unknown,1
-84.0659694,38.7422013,,,The Greenhouse in Gertrude,"3246 Augusta-Berlin Road, Brooksville, KY 41004",Drue Hyrcza,(606) 756-3971,adm122@windstream.net,,Bracken,Kentucky Proud Greenhouse Products 2021,Unknown,2
-83.3612854,37.5569034,,,Howell Farm & Greenhouse,"2227 Hwy 15 North, Jackson, KY 41339",Jeffery or Shannon Howell,(606) 666-5849,jwhowell1@att.net,,Breathitt,Kentucky Proud Greenhouse Growers 2021,Unknown,1
-83.3835135,37.5531457,,,Breathitt County Farmers' Market,", Jackson, KY 41339",Reed Graham,(606) 666-8812,reed.graham@uky.edu,www.facebook.com/BreathittFarmersMarket/,Breathitt,Kentucky Proud Greenhouse Products 2021,Unknown,1
-83.3612854,37.5569034,,,Howell Farm & Greenhouse,"2227 Hwy 15 North, Jackson, KY 41339",Jeffery or Shannon Howell,(606) 666-5849,jwhowell1@att.net,,Breathitt,Kentucky Proud Greenhouse Products 2021,Unknown,2
-83.3845312,37.5548477,,,Breathitt Co. High School Agriculture Dept.,"2307 Bobcat Lane, Jackson, KY 41339",Sherrie Stewart,(606) 666-7511,sherri.stewart@breathitt.kyschools.us,Breathitt Co. schools,Breathitt,Kentucky Proud Greenhouse Products 2021,Unknown,2
-83.3944449,37.5944986,,,Newton's Farm Goods,"200 Newton Branch, Jackson, KY 41339",David Newton,(606) 666-8255,newboy6969@gmail.com,,Breathitt,Kentucky Proud Greenhouse Products 2021,Unknown,1
-83.4674614,37.5835757,,,Lyon's Farm,"500 Rode Fork Road, Jackson, KY 41339",Jonathan Lyons,(419) 951-3594,jell3337@gmail.com,,Breathitt,Kentucky Proud Greenhouse Products 2021,Unknown,1
-83.3845312,37.5548477,,,Appharvest Container Farm At Breathitt County High School,"2307 Bobcat Lane, Jackson, KY 41339",Hunter Jarosz,(606) 548-4139,hunter.jarosz@appharvest.com,,Breathitt,Kentucky Proud Greenhouse Products 2021,Unknown,3
-83.394379,37.5602073,B,Yes,Jackson True Value Hardware,"726 Highway 15 North, Jackson, KY 41339-",Martin Douthitt,(606) 666-4056,jacksontruevalue@gmail.com,,Breathitt,Kentucky Nursery Licenses 2021-2022,Unknown,1
-83.3845312,37.5548477,,No,Breathitt County High School,"2307 Bobcat Lane, Jackson, KY 41339",Taylor Masters,,taylor.masters@breathitt.kyschools.us,,Breathitt,"Ag FFA Instructors, POWER counties",Unknown,1
-86.4506141,37.7822993,A2005?0149,No,Breckinridge County Board of Education,"86 Airport Road, Hardinsburg, KY 40144",,,dwayne.mitcham@breck.kyschools.us,,Breckinridge,KOAP Open Record Req. GHs,Unknown,1
-86.6645178,37.7856961,,,"Honey Locust Valley Farm, Inc.","11375 HWY 992, Cloverport, KY 40111",Debra Lowe,(270) 617-3752,debbie.hlvf@yahoo.com,,Breckinridge,Kentucky Proud Greenhouse Growers 2021,Unknown,1
-86.328323,37.655945,,,Tucker Family Farms,"2764 Mook Centerview Road, Hudson, KY 40145",Josh Tucker,(270) 257-2639,kellyjosh1984@hotmail.com,,Breckinridge,Kentucky Proud Greenhouse Growers 2021,Unknown,1
-86.3212484,37.8111727,,,Poppop N Bears Nursery LLC,"9344 E. Highway 60, Irvington, KY 40146",Michael Stewart,,poppopnbearsnursery@gmail.com,,Breckinridge,Kentucky Proud Greenhouse Growers 2021,Unknown,2
-86.6328014,37.8362674,,,Arrowhead Acres Farm,"PO Box 35, Cloverport, KY 40111",Edward Bowne,(270) 993-2041,donna.popham@hancock.kyschools.us,,Breckinridge,Kentucky Proud Greenhouse Products 2021,Unknown,1
-86.284645,37.739474,,,Springhill Arabians Farm,"655 Ova Drane Ln, Custer, KY 40115",Rosemary Prather,(570) 536-3377,creation@bbtel.com,,Breckinridge,Kentucky Proud Greenhouse Products 2021,Unknown,1
-86.2290765,37.7702011,,,Shady Woods Country Acers,"141 H5 Milburn Ln, Custer, KY 40115",Laura Woods,(270) 536-3136,kyhalfpint75@yahoo.com,,Breckinridge,Kentucky Proud Greenhouse Products 2021,Unknown,1
-86.523666,37.723227,,,Galloway Produce,"3921 Highway 105 South, Hardinsburg, KY 40143",Sam Galloway,,sam.gallowak@yahoo.com,,Breckinridge,Kentucky Proud Greenhouse Products 2021,Unknown,1
-86.328323,37.655945,,,Tucker Family Farms,"2764 Mook Centerview Road, Hudson, KY 40145",Josh Tucker,(270) 257-2639,kellyjosh1984@hotmail.com,,Breckinridge,Kentucky Proud Greenhouse Products 2021,Unknown,2
-86.3212484,37.8111727,,,Poppop N Bears Nursery LLC,"9344 E. Highway 60, Irvington, KY 40146",Michael Stewart,,poppopnbearsnursery@gmail.com,,Breckinridge,Kentucky Proud Greenhouse Products 2021,Unknown,3
-86.4330245,37.6410938,,,Wright Family Farm,"43 Hillview Lane, Mcdaniels, KY 40152",William Wright,(502) 855-0748,cvanteacher@gmail.com,,Breckinridge,Kentucky Proud Greenhouse Products 2021,Unknown,1
-86.3056418,37.9389998,,,Sandy Hill Farms,"3725 Fackler Rd, Webster, KY 40176",James Stull,(270) 547-5178,tstull@bbtell.com,,Breckinridge,Kentucky Proud Greenhouse Products 2021,Unknown,1
-86.345256,37.907738,A,Yes,Ginseng Ridge Garden,"4567 Hwy 477, Webster, KY 40176-",Amanda Mattingly,(270) 547-8842,GinsengRidgeGarden@gmail.com,,Breckinridge,Kentucky Nursery Licenses 2021-2022,Unknown,1
-86.2432187,37.7520138,A,Yes,Meredith's Greenhouse,"15762 Hwy 690, Custer, KY 40115-",Sherry Meredith,(270) 536-3462,sherrylane0324@gmail.com,,Breckinridge,Kentucky Nursery Licenses 2021-2022,Unknown,1
-86.3212484,37.8111727,A,Yes,PopPop 'N' Bears Nursery,"9344 East Highway 60, Irvington, KY 40146-",Michael & Brandi Stewart,(812) 653-1072,poppopnbearsnursery@gmail.com,,Breckinridge,Kentucky Nursery Licenses 2021-2022,Unknown,1
-85.7496605,37.9315234,,,"Bluegrass Cannaceuticals, LLC","5196 Beech Grove Road, Lebanon Junction, KY 40150",Samuel Cundiff,(502) 277-1079,bluegrasscannaceuticals@yahoo.com,bluegrasscannaceuticals.com,Bullitt,Kentucky Proud Greenhouse Growers 2021,Unknown,1
-85.6914368,37.9733518,,,Ridgeview Greenhouse & Nursery,"460 Buffalo Run Road, Shepherdsville, KY 40165","Jerry Thomas, JoAnn Josephine",(502) 955-5939,,,Bullitt,Kentucky Proud Greenhouse Growers 2021,Unknown,1
-85.829787,38.020243,,,Hilltop Organic Farm,"1556 Hilltop Road, Shepherdsville, KY 40165",Lina Laverty,,taghreedth@yahoo.com,,Bullitt,Kentucky Proud Greenhouse Growers 2021,Unknown,1
-85.5428311,38.0497954,,,Mt. Washington Farmers' Market,"311 Snapp Street, Mt Washington, KY 40047",Lori Puchino,(502) 538-4216,lpuchino@mtwky.org,www.mtwashingtonky.org,Bullitt,Kentucky Proud Greenhouse Products 2021,Unknown,1
-85.5234789,38.0584698,,,Dawson Farms,"11690 Highway 44 East, Mt Washington, KY 40047",Christina Greenwell,(502) 299-9411,cagreenwell@hotmail.com,,Bullitt,Kentucky Proud Greenhouse Products 2021,Unknown,1
-85.5143504,38.0129892,,,Jeff Lemr,"3133 South Bardstown Rd., Mt Washington, KY 40047",Jeff Lemr,(502) 724-8154,JLemr33@gmail.com,,Bullitt,Kentucky Proud Greenhouse Products 2021,Unknown,1
-85.7456941,38.0613671,,,Sharon McGowan/Gretchen Morrison,"3004 Brooks Hill Rd, Brooks, KY 40109",Sharon McGowan & Gretchem Morrison,(502) 693-3687,mschefs2@yahoo.com,,Bullitt,Kentucky Proud Greenhouse Products 2021,Unknown,1
-85.731066,38.0784499,,,Plants By Patti,"790 Brooks Forest Road, Brooks, KY 40109",Patti Tucker,(502) 955-6535,pjtuck55@hotmail.com,,Bullitt,Kentucky Proud Greenhouse Products 2021,Unknown,1
-85.716188,37.855584,,,Growing Together Farm,"524 Massey Road, Lebanon Junction, KY 40150",Tom Marks,(502) 833-4796,Flower60@bellsouth.net,,Bullitt,Kentucky Proud Greenhouse Products 2021,Unknown,1
-85.6914368,37.9733518,,,Ridgeview Greenhouse & Nursery,"460 Buffalo Run Road, Shepherdsville, KY 40165","Jerry Thomas, JoAnn Josephine",(502) 955-5939,,,Bullitt,Kentucky Proud Greenhouse Products 2021,Unknown,2
-85.6973611,37.9984818,,,Bullitt Central Greenpaw Greenhouse,"1330 Hwy 44 East, Shepherdsville, KY 40165",Michael Peaeke,(502) 869-6000,justin.peake@bullitt.kyschools.us,bullitt.kyschools.us,Bullitt,Kentucky Proud Greenhouse Products 2021,Unknown,1
-85.829787,38.020243,,,Hilltop Organic Farm,"1556 Hilltop Road, Shepherdsville, KY 40165",Lina Laverty,,taghreedth@yahoo.com,,Bullitt,Kentucky Proud Greenhouse Products 2021,Unknown,2
-85.7157924,37.9883991,,,Shepherdsville Farmers' Market,", Shepherdsville, KY 40165",Faith Portman,(502) 543-2923,fportman@shepcity.com,,Bullitt,Kentucky Proud Greenhouse Products 2021,Unknown,1
-85.62813,38.0303274,,,The Garden Gals,"338 Amanda Court, Shepherdsville, KY 40165",Jennifer Misner,(570) 903-4371,hellogardengals@gmail.com,www.thegardengals.com,Bullitt,Kentucky Proud Greenhouse Products 2021,Unknown,1
-85.504897,38.078797,A,Yes,Badlands Nursery,"462 Stoney Ln., Taylorsville, KY 40071-",Carl Werkmeister,(502) 541-9537,Swerk3@hotmail.com,,Bullitt,Kentucky Nursery Licenses 2021-2022,Unknown,1
-85.713735,38.067658,A,Yes,Good Shipp Alpaca Company,"3821 Coral Ridge Road, Brooks, KY 40109-",Jamie Shipp,(502) 303-0542,goodshippalpacaco@gmail.com,,Bullitt,Kentucky Nursery Licenses 2021-2022,Unknown,1
-85.6841829,38.0631665,A,Yes,Grow Wilder,"12418 Kingsley Dr., Louisville, KY 40229-",Alisha Wilder,(502) 552-6690,Kysunshine1981@gmail.com,,Bullitt,Kentucky Nursery Licenses 2021-2022,Unknown,1
-85.7105506,38.0638705,B,Yes,"Okes Lawn & Landscape, Inc.","3565 Coral Ridge Rd., Brooks, KY 40109-",Michael Okes,(502) 969-5296,info@okeslandscaping.com,,Bullitt,Kentucky Nursery Licenses 2021-2022,Unknown,1
-85.6369095,38.0156707,,Yes,"Country Corner Greenhouse & Nursery, Inc.","4877 Hwy 44E, Shepherdsville, KY 40165",,5029558635,,,Bullitt,KGA Commercial Directory,Unknown,1
-86.7281887,37.1897909,A2010?0142,Yes,"ATP Greenhouses, LLC","921 Hidden Valley Road, Morgantown, KY 42261",,,Michael Robbins,,Butler,KOAP Open Record Req. GHs,Unknown,1
-86.78596,37.175541,,,Cardwell Family Farms,"488 Stringtown Road, Morgantown, KY 42261",Dennis Cardwell,(270) 999-0975,djcardwell1@hotmail.com,,Butler,Kentucky Proud Greenhouse Growers 2021,Unknown,1
-86.78596,37.175541,,,Cardwell Family Farms,"488 Stringtown Road, Morgantown, KY 42261",Dennis Cardwell,(270) 999-0975,djcardwell1@hotmail.com,,Butler,Kentucky Proud Greenhouse Products 2021,Unknown,2
-86.7281887,37.1897909,,,ATP Greenhouses LLC,"877 Hidden Valley Rd, Morgantown, KY 42261",Michael Robbins,(270) 999-1305,ml.robbins@live.com,https://www.facebook.com/ATPGreenhousesLLC/,Butler,Kentucky Proud Greenhouse Products 2021,Unknown,2
-86.6215327,37.3079626,,,Vanburenï¿½s Market,"5740 Caneyville Road, Morgantown, KY 42261",Joshua Gilpin,(270) 526-4032,jgilpin754@gmail.com,www.vanburensmarket.com,Butler,Kentucky Proud Greenhouse Products 2021,Unknown,1
-86.6934656,37.1875846,,,The Naughty Gnome,"11 Deer Pond Drive, Morgantown, KY 42261",Amber McIntosh,(270) 999-5912,naughtygnomeplantshop@gmail.com,WWW.ETSY.COM/SHOP/THENAUGHTYGNOME,Butler,Kentucky Proud Greenhouse Products 2021,Unknown,1
-86.719201,37.117998,,,Pendley Family Farms,"311 Mason Cemetery Road, Morgantown, KY 42261",Dana Pendley,(270) 526-5100,pendleyfarms@gmail.com,,Butler,Kentucky Proud Greenhouse Products 2021,Unknown,2
-86.6915931,37.2246304,,,Morgantown Farmers' Market,"Charles Black City Park, Morgantown, KY 42261",Ryan Emmick,(270) 999-1915,ryan.emmick@butler.kyschools.us,https://www.facebook.com/MorgantownFarmersMkt/,Butler,Kentucky Proud Greenhouse Products 2021,Unknown,1
-86.719201,37.117998,A,Yes,Pendley Family Farms,"311 Mason Cemetery Rd., Morgantown, KY 42261-",Ryan and Dana Pendley,(270) 526-5100,pendleyfarms@gmail.com,,Butler,Kentucky Nursery Licenses 2021-2022,Unknown,1
-86.540521,37.3707889,A,Yes,Pleasant Ridge Greenhouse,"637 Bryant Ridge Rd., Caneyville, KY 42721-",David Yoder,(270) 526-3029,,,Butler,Kentucky Nursery Licenses 2021-2022,Unknown,1
-86.84455,37.069456,A,Yes,Quality Nursery,"8874 Huntsville-Quality Road, Quality, KY 42256-",Lee Hinkle,(270) 755-2678,,,Butler,Kentucky Nursery Licenses 2021-2022,Unknown,1
-86.8767265,37.1110281,A,Yes,Songbird Gardens,"460 Harper Rd, Lewisburg, KY 42256-",Teresa Barrow,(270) 999-6455,bluegrassmom@logantele.com,,Butler,Kentucky Nursery Licenses 2021-2022,Unknown,1
-87.887268,37.1110476,A2021?0233,No,Caldwell County Board of Education,612 West Washington Street Princeton KY 42445,,,wes.york@caldwell.kyschools.us,,Caldwell,KOAP Open Record Req. GHs,Unknown,1
-84.5047885,38.0349955,A2010?0104,No,University of Kentucky Research Foundation,"172 Funkhouser Drive 109 Kinkead Hall, Lexington, KY 40506",,(859) 257?9420,patsy.wilson@uky.edu,,Caldwell,KOAP Open Record Req. GHs,Unknown,1
-88.0605975,37.2175001,,,Rogers Farms,"115 Cardinal Ln, Fredonia, KY 42411",Brody Rogers,,Brodyr50@gmail.com,,Caldwell,Kentucky Proud Greenhouse Growers 2021,Unknown,1
-88.0629308,37.2100435,,,Arrowhead Acres Nursery,"403 State Route 902 East, Fredonia, KY 42411",Hannah York,(270) 625-0223,arrowheadacresnursery@gmail.com,,Caldwell,Kentucky Proud Greenhouse Growers 2021,Unknown,1
-88.0605975,37.2175001,,,Rogers Farms,"115 Cardinal Ln, Fredonia, KY 42411",Brody Rogers,,Brodyr50@gmail.com,,Caldwell,Kentucky Proud Greenhouse Products 2021,Unknown,2
-88.0629308,37.2100435,,,Arrowhead Acres Nursery,"403 State Route 902 East, Fredonia, KY 42411",Hannah York,(270) 625-0223,arrowheadacresnursery@gmail.com,,Caldwell,Kentucky Proud Greenhouse Products 2021,Unknown,2
-87.8819594,37.1092162,,,Caldwell County Farmers' Market,", Princeton, KY 42445",Stephen Shafer,,shafer78@yahoo.com,www.facebook.com/Caldwell-County-KY-Farmers-Market-1407509789578788/,Caldwell,Kentucky Proud Greenhouse Products 2021,Unknown,1
-87.9141352,37.1911606,,,Trimble Farms,"3513 Farmersville Road, Princeton, KY 42445",Ben & Lisa Trimble,,Bltrimble4@gmail.com,,Caldwell,Kentucky Proud Greenhouse Products 2021,Unknown,2
-87.757215,37.068108,A,Yes,Ben E. Stoltzfus,"986 Friendship Rd., Princeton, KY 42445-",Ben E. Stoltzfus,,,,Caldwell,Kentucky Nursery Licenses 2021-2022,Unknown,1
-87.8771773,37.0302049,A,Yes,D & N Greenhouse,"4969 Cadiz Road, Princeton, KY 42445-",David Beiler,,,,Caldwell,Kentucky Nursery Licenses 2021-2022,Unknown,1
-88.066066,37.220756,A,Yes,Tolley Farms,"21541 Marion Rd., Fredonia, KY 42411-",James or Meg Tolley,(270) 545-7713,Jtolley@bellsouth.net,,Caldwell,Kentucky Nursery Licenses 2021-2022,Unknown,1
-87.9141352,37.1911606,A,Yes,Trimble Farms,"3513 Farmersville Rd, Princeton, KY 42445-",Ben Trimble,(270) 625-2295,bltrimble4@gmail.com,,Caldwell,Kentucky Nursery Licenses 2021-2022,Unknown,1
-88.3429829,36.6182457,A2016?0093,No,Calloway County School District,"2110 College Farm Road, Murray, KY 42071",,(270) 762?7300 (270) 762?7310,jacob.falwell@calloway.kyschools.us,,Calloway,KOAP Open Record Req. GHs,Unknown,1
-88.3910309,36.7136612,,,Wade's Creek Greenhouses,"1678 Old Hickory Rd., Kirksey, KY 42054",Meagan Palmer,,meagankaypalmer@gmail.com,https://www.facebook.com/wadescreekgreenhouses,Calloway,Kentucky Proud Greenhouse Growers 2021,Unknown,1
-88.314761,36.6103334,,,Rightway Nursery Inc.,"3975 US Hwy 641 North, Murray, KY 42071",Ben Wright,(270) 767-0140,sandy@rightwaygardencenter.com,www.rightwaynursery.com,Calloway,Kentucky Proud Greenhouse Growers 2021,Unknown,1
-88.2464416,36.6356917,,,Crossroads Farm,"361 Colonial Road, Murray, KY 42071",Christy Mattingly,,christymattingly@bellsouth.net,,Calloway,Kentucky Proud Greenhouse Growers 2021,Unknown,1
-88.3910309,36.7136612,,,Wade's Creek Greenhouses,"1678 Old Hickory Rd., Kirksey, KY 42054",Meagan Palmer,,meagankaypalmer@gmail.com,https://www.facebook.com/wadescreekgreenhouses,Calloway,Kentucky Proud Greenhouse Products 2021,Unknown,2
-88.3763415,36.5585787,,,Paschall's Greenhouse & Nursery,"1207 Billy Paschall Rd, Murray, KY 42071",Mitchell Paschall,(270) 753-2322,info@paschallsnursery.com,www.paschallsnursery.com,Calloway,Kentucky Proud Greenhouse Products 2021,Unknown,1
-88.314761,36.6103334,,,Downtown Farmers' Market,", Murray, KY 42071",Deana Wright,(270) 759-9474,murraymainstreet@murray-ky.net,www.murrayfarmersmarket.com,Calloway,Kentucky Proud Greenhouse Products 2021,Unknown,1
-88.314761,36.6103334,,,Rightway Nursery Inc.,"3975 US Hwy 641 North, Murray, KY 42071",Ben Wright,(270) 767-0140,sandy@rightwaygardencenter.com,www.rightwaynursery.com,Calloway,Kentucky Proud Greenhouse Products 2021,Unknown,2
-88.369033,36.546095,,,Achenback Farm,"470 Paschall Road, Murray, KY 42071",John Sales,,achenbackfarm@gmail.com,,Calloway,Kentucky Proud Greenhouse Products 2021,Unknown,1
-88.2464416,36.6356917,,,Crossroads Farm,"361 Colonial Road, Murray, KY 42071",Christy Mattingly,,christymattingly@bellsouth.net,,Calloway,Kentucky Proud Greenhouse Products 2021,Unknown,2
-84.7479996,37.0717419,,,Fools Gourd Farm,"5884 South Hwy 837, Nancy, KY 42544",James Howard,(606) 871-7216,jhoward557@aol.com,,Calloway,Kentucky Proud Greenhouse Products 2021,Unknown,1
-88.2819414,36.5664399,A,Yes,Elderberry Acre Farm,"1102 Locust Grove Rd, Murray, KY 42071-",Bridget Rogers,(270) 205-1863,gidgetzen@live.com,,Calloway,Kentucky Nursery Licenses 2021-2022,Unknown,1
-88.314761,36.6103334,A,Yes,"Hendon's Garden Center, LLC","3975 US Hwy 641 N., Murray, KY 42071-",Hannah Hendon,(270) 767-0140,hannah.hendon@gmail.com,,Calloway,Kentucky Nursery Licenses 2021-2022,Unknown,1
-88.2357543,36.5782317,A,Yes,Mikulcik's Nursery Inc.,"5327 State Route 121 South, Murray, KY 42071-",David Mikulcik,(270) 753-3211,mikulciksnursery@gmail.com,,Calloway,Kentucky Nursery Licenses 2021-2022,Unknown,1
-88.3029717,36.6658165,B,Yes,Rolling Hills Nursery,"3860 US Highway 641 North, Murray, KY 42071-",Rob Stanfa,(270) 753-1725,rob@rollingh.com,,Calloway,Kentucky Nursery Licenses 2021-2022,Unknown,1
-88.42695,36.5681824,A,Yes,"Simply-Cannabis, Inc","1246 Cherokee Trail, Murray, KY 42071-",Terry Workman,(270) 435-4090,tw.simplycannabis@gmail.com,,Calloway,Kentucky Nursery Licenses 2021-2022,Unknown,1
-88.3265718,36.5118014,A,Yes,"Stockdale Tree Farm, LLC","2266 Bakers Crossroads Dr., Hazel, KY 42049-",Jamie & Johnnie Stockdale,(270) 492-8840,johnnie@stockdaletrees.com,,Calloway,Kentucky Nursery Licenses 2021-2022,Unknown,1
-84.452213,38.851873,,,Awesome Place Farm,"166 Awesome Place Drive, Alexandria, KY 41001",Gregory Or Charlene Hallau,(859) 448-0179,awesomeplacefarm@yahoo.com,,Campbell,Kentucky Proud Greenhouse Growers 2021,Unknown,1
-84.452213,38.851873,,,Awesome Place Farm,"166 Awesome Place Drive, Alexandria, KY 41001",Gregory Or Charlene Hallau,(859) 448-0179,awesomeplacefarm@yahoo.com,,Campbell,Kentucky Proud Greenhouse Products 2021,Unknown,2
-84.4540213,39.0799481,,,Fort Thomas Farmers' Market,", Ft Thomas, KY 41075",Debbie Buckley,(859) 441-1055,dbuckley@ftthomas.org,www.facebook.com/fortthomasfarmersmarket/,Campbell,Kentucky Proud Greenhouse Products 2021,Unknown,1
-84.4518854,39.0331169,,,"Campbell County Farmers' Market, Inc.",", Highland Heights, KY 41076",Susan Turner,,sortliebturner@zoomtown.com,https://www.facebook.com/campbellcountyfarmmarket,Campbell,Kentucky Proud Greenhouse Products 2021,Unknown,1
-84.331446,38.860007,A,Yes,Bezold Pines,"12751 Fisher Road, California, KY 41007-",Glenn Bezold,(859) 635-5283,,,Campbell,Kentucky Nursery Licenses 2021-2022,Unknown,1
-84.3586885,38.9732834,B,Yes,"Brentwood Landscape & Supply, Inc","8131 AA Highway, Alexandria, KY 41001-9238",Bob Petracco,(859) 635-0711,,,Campbell,Kentucky Nursery Licenses 2021-2022,Unknown,1
-84.4479518,39.0421637,B,Yes,Highland Garden Center Inc.,"2227 Alexandria Pike, Highland Heights, KY 41076-",Louis Sauser,(859) 441-6200,,,Campbell,Kentucky Nursery Licenses 2021-2022,Unknown,1
-84.4555251,39.0023496,B,Yes,"Kendrick & O'Dell Landscaping, Inc","6396 Licking Pike, Cold Spring, KY 41076-",Kevin O'Dell,(859) 441-3552,kmo@kendrickodell.com,,Campbell,Kentucky Nursery Licenses 2021-2022,Unknown,1
-84.4785295,39.1064752,,Yes,All Seasons Landscaping,"4850 Van Voast Ave, Bellevue, KY 41073",Elmer Grosser,6064918611,,,Campbell,KGA Commercial Directory,Unknown,1
-84.461663,39.0736462,,Yes,FT Thomas Florists,"63 S Grand Ave, Ft Thomas KY, 41075",Bob Messmer,6064418049,,,Campbell,KGA Commercial Directory,Unknown,1
-84.4479518,39.0421637,,Yes,"Highland Garden Center, Inc.","2227 Alexandria Pike, Highland Heights, KY 41076","Charles Kelley, Louis Sauser",6064416200,,,Campbell,KGA Commercial Directory,Unknown,2
-88.9324817,36.8329548,A2002?0380,No,Carlisle County Schools,"4557 State Route 1377 Bardwell, KY 42023",,(270) 628?3800,kelli.edging@carlisle.kyschools.us,,Carlisle,KOAP Open Record Req. GHs,Unknown,1
-85.1725213,38.6738858,A2003?0158,No,Carroll County Board of Education,"813 Hawkins Street Carrollton, KY 41008",Superintendent: Casey Jaynes,(502) 732-7070,casey.jaynes@carroll.kyschools.us,,Carroll,KOAP Open Record Req. GHs,Unknown,1
-85.1793979,38.6808958,,,Riverview Farmers' Market,", Carrollton, KY 41008",Christin Herbst,(502) 732-7030,christin.herbst@uky.edu,https://www.facebook.com/RiverView-Farmers-Market-1423941601241442/,Carroll,Kentucky Proud Greenhouse Products 2021,Unknown,1
-85.1793979,38.6808958,,,Dragonfly Nursery,"2758 Ky Hwy 55, Carrollton, KY 41008",Michael Lillard,,mike.us@icloud.com,http://fb.me/plantvip,Carroll,Kentucky Proud Greenhouse Products 2021,Unknown,1
-85.057118,38.698304,,,Jumbleberry Farms,"1996 Bucks Run Rd, Ghent, KY 41045",Jim Graves,(502) 347-0967,gravesjw1@gmail.com,,Carroll,Kentucky Proud Greenhouse Products 2021,Unknown,1
-84.9805747,38.7220397,,,Lynn Farm,"999 Furnish Road, Ghent, KY 41045",Elizabeth Lynn,,yolizzy320@gmail.com,,Carroll,Kentucky Proud Greenhouse Products 2021,Unknown,1
-84.9623487,38.6353111,,,Hazelfield Farm,"1585 Butler Inn Road, Worthville, KY 41098",Teresa Biagi & Raphe Ellis,(502) 463-2492,hazelfieldfarm@hotmail.com,www.hazelfieldfarm.com,Carroll,Kentucky Proud Greenhouse Products 2021,Unknown,1
-82.9462241,38.3281835,A2001?0834,No,Carter County Board of Education,"228 S. Carol Malone Blvd., Grayson, KY 41143","Superintendent: Dr. Paul Green, Ed.D.",(606) 474?6696,,,Carter,KOAP Open Record Req. GHs,Unknown,1
-83.0092993,38.3981933,,,Garden Gate Greenhouse,"13806 North State Hwy 7, Grayson, KY 41143",Julie Bush,(606) 475-9960,gardengate@windstream.net,www.gardengateky.com,Carter,Kentucky Proud Greenhouse Growers 2021,Unknown,1
-82.9960365,38.3330135,,,Fairytale Farms,"2716 West US 60, Grayson, KY 41143",Adam Bond,,ftfgreenhouse@gmail.com,,Carter,Kentucky Proud Greenhouse Growers 2021,Unknown,1
-82.8458969,38.345622,,,David Lynn Willis,"6991 Wilson Creek Road, Grayson, KY 41143",David Lynn Willis,,dwillis30@hotmail.com,,Carter,Kentucky Proud Greenhouse Growers 2021,Unknown,1
-83.1513316,38.3110319,,,West Carter FFA,"365 West Carter Drive, Olive Hill, KY 41164",Will Davis,(606) 286-2481,will.davis@carter.kyschools.us,,Carter,Kentucky Proud Greenhouse Growers 2021,Unknown,2
-83.0092993,38.3981933,,,Garden Gate Greenhouse,"13806 North State Hwy 7, Grayson, KY 41143",Julie Bush,(606) 475-9960,gardengate@windstream.net,www.gardengateky.com,Carter,Kentucky Proud Greenhouse Products 2021,Unknown,2
-82.8627868,38.3747625,,,Valley Of Hope Farms,"866 Joe Branch Road, Grayson, KY 41143",Milissia Owens,(606) 475-1924,stephen_owens110@yahoo.com,www.valleyofhopefarms.com,Carter,Kentucky Proud Greenhouse Products 2021,Unknown,2
-82.9115779,38.3375357,,,Justice Farms,"1615 E. Midland Trail 1, Grayson, KY 41143",Adam Justice,(904) 397-1111,Therealadamjustice@gmail.com,,Carter,Kentucky Proud Greenhouse Products 2021,Unknown,1
-82.8458969,38.345622,,,David Lynn Willis,"6991 Wilson Creek Road, Grayson, KY 41143",David Lynn Willis,,dwillis30@hotmail.com,,Carter,Kentucky Proud Greenhouse Products 2021,Unknown,2
-83.1835791,38.2251706,,,Hippie Holler Farm,"191 Wayne Kilgore Road, Olive Hill, KY 41164",Maggie Miles,,hippiehollerfarm@gmail.com,www.hippiehollerfarm.com,Carter,Kentucky Proud Greenhouse Products 2021,Unknown,1
-83.158525,38.4332149,,,"Forgotten Foods Farm, LLC","1146 State Highway 396, Olive Hill, KY 41164",Channing or Amy Richardson,(606) 776-2153,forgottenfoodsfarm@gmail.com,www.forgottenfoodsfarm.com,Carter,Kentucky Proud Greenhouse Products 2021,Unknown,1
-83.1513316,38.3110319,,,West Carter FFA,"365 West Carter Drive, Olive Hill, KY 41164",Will Davis,(606) 286-2481,will.davis@carter.kyschools.us,,Carter,Kentucky Proud Greenhouse Products 2021,Unknown,4
-82.8953766,38.209374,,,Sexton's Farm,"Belletrace, Willard, KY 41181",Leland Jay Sexton,(606) 652-9068,,,Carter,Kentucky Proud Greenhouse Products 2021,Unknown,1
-82.9193526,38.3166994,A,Yes,"Rainbow Gardens, LLC","1056 Damron Branch, Grayson, KY 41143-",Ralph Burkholder,(606) 475-3696,,,Carter,Kentucky Nursery Licenses 2021-2022,Unknown,1
-82.8627868,38.3747625,A,Yes,Valley of Hope Farms,"866 Joe Br., Grayson, KY 41143-",Milissia Owens,(606) 475-1924,stephen_owens110@yahoo.com,,Carter,Kentucky Nursery Licenses 2021-2022,Unknown,1
-83.1513316,38.3110319,,No,West Carter High School,"365 West Carter Drive, Olive Hill, KY 41164","Will Davis, Lora Phillips",,"will.davis@carter.kyschools.us, lora.phillips@carter.kyschools.us",,Carter,"Ag FFA Instructors, POWER counties",Unknown,3
-82.920446,38.281403,,No,East Carter High School,"405 Hitchins Road, Grayson, KY 41143",Kenny Brammell,,kenneth.brammell@carter.kyschools.us,,Carter,"Ag FFA Instructors, POWER counties",Unknown,1
-82.869031,38.334411,,Yes,Erica's Gardens,"941 Tark Hill Rd, Grayson, KY 41143",Rex and Shelia Collins,6064747392,collins@email.kcc.edu,,Carter,KGA Commercial Directory,Unknown,1
-83.0092993,38.3981933,,Yes,Hilltop Farm,"11975 N State Hwy 7, Grayson, KY 41143",David C Stapleton,6064747577,htfl@yahoo.com,,Carter,KGA Commercial Directory,Unknown,1
-84.8429709,37.2407885,,,Chemical Free Farmer,"3376 Jonathan Fork Road, Liberty, KY 42539",Lee Or Jeri Gerhart,(606) 787-4561,jeri@plaingood.org,,Casey,Kentucky Proud Greenhouse Growers 2021,Unknown,1
-85.010977,37.316382,,,Pennington Farm & Garden Center,"2212 Canoe Creek Road, Liberty, KY 42539",Brent Pennington,(606) 219-5212,cristycri@aol.com,,Casey,Kentucky Proud Greenhouse Growers 2021,Unknown,1
-85.002576,37.329038,,,Second Season Produce,"2806 Ky 1547, Liberty, KY 42539",James Farber,,jcfarber@yahoo.com,,Casey,Kentucky Proud Greenhouse Growers 2021,Unknown,1
-84.8032212,37.2378462,,,Clay's Crops,"5961 Poplar Hill Rd, Liberty, KY 42539",Brian Johnson,(606) 787-4445,bljohnson@caseybank.com,,Casey,Kentucky Proud Greenhouse Growers 2021,Unknown,1
-84.797867,37.285594,,,Pure Springs Farm & Growers,"12081 East Ky 70, Yosemite, KY 42566",Allen Lapere,(606) 787-4390,allenlapere@sbcglobal.net,,Casey,Kentucky Proud Greenhouse Growers 2021,Unknown,1
-84.9606822,37.1891497,,,Ridgetop Greenhouses Garden & Gift Shop,"803 Thomas Ridge Spur Rd, Dunnville, KY 42528",Teresa Luttrell,(606) 787-8480,jtha1983@yahoo.com,,Casey,Kentucky Proud Greenhouse Products 2021,Unknown,2
-85.069563,37.3785049,,,"MeadowBrook Orchards & Farms, Inc.","680 Dug Hill Road, Liberty, KY 42539",Diana Paluy,(606) 787-4690,diana.dughillrd@msn.com,,Casey,Kentucky Proud Greenhouse Products 2021,Unknown,1
-84.91613,37.204389,,,Jerome & Paula Lange,"2107 South Fork Ridge Road, Liberty, KY 42539",Jerome & Paula Lange,(606) 787-7568,,,Casey,Kentucky Proud Greenhouse Products 2021,Unknown,1
-85.022709,37.285633,,,Cripple Creek Farm,"225 Tennessee Ridge Road, Liberty, KY 42539",Glenna Burke,(606) 706-0441,gabglenna@live.com,,Casey,Kentucky Proud Greenhouse Products 2021,Unknown,1
-84.8429709,37.2407885,,,Chemical Free Farmer,"3376 Jonathan Fork Road, Liberty, KY 42539",Lee Or Jeri Gerhart,(606) 787-4561,jeri@plaingood.org,,Casey,Kentucky Proud Greenhouse Products 2021,Unknown,2
-85.010977,37.316382,,,Pennington Farm & Garden Center,"2212 Canoe Creek Road, Liberty, KY 42539",Brent Pennington,(606) 219-5212,cristycri@aol.com,,Casey,Kentucky Proud Greenhouse Products 2021,Unknown,2
-85.002576,37.329038,,,Second Season Produce,"2806 Ky 1547, Liberty, KY 42539",James Farber,,jcfarber@yahoo.com,,Casey,Kentucky Proud Greenhouse Products 2021,Unknown,2
-84.9425762,37.1802887,,,Holland Family Farm,"5013 Ky Hwy 910, Liberty, KY 42539",Patrick Holland,(606) 787-7700,breadforlife@emypeople.net,,Casey,Kentucky Proud Greenhouse Products 2021,Unknown,1
-84.9393979,37.3184064,,,Casey County Farmers Market,", Liberty, KY 42539",Andrew Richardson,(606) 787-7384,caseycofarmersmarket@gmail.com,https://www.facebook.com/Casey-County-Farmers-Market-2001803176807837/,Casey,Kentucky Proud Greenhouse Products 2021,Unknown,1
-84.8032212,37.2378462,,,Clay's Crops,"5961 Poplar Hill Rd, Liberty, KY 42539",Brian Johnson,(606) 787-4445,bljohnson@caseybank.com,,Casey,Kentucky Proud Greenhouse Products 2021,Unknown,2
-84.797867,37.285594,,,Pure Springs Farm & Growers,"12081 East Ky 70, Yosemite, KY 42566",Allen Lapere,(606) 787-4390,allenlapere@sbcglobal.net,,Casey,Kentucky Proud Greenhouse Products 2021,Unknown,2
-84.9606822,37.1891497,B,Yes,Ridgetop Greenhouses Garden & Gift Shop,"803 Thomas Ridge Spur Road, Dunnville, KY 42528-",Teresa Luttrell,(606) 787-8480,jtha1983@yahoo.com,,Casey,Kentucky Nursery Licenses 2021-2022,Unknown,1
-84.7116486,37.2440158,,No,Casey County High School,"1841 East KY 70, Liberty, KY 42539","Jenni Godbey, Alan Godbey",,"jenni.godbey@casey.kyschools.us, alan.godbey@casey.kyschools.us",,Casey,"Ag FFA Instructors, POWER counties",Unknown,1
-87.4906933,36.8794326,A2007?0061,No,Christian County Board of Education,"200 Glass Avenue, Hopkinsville, KY 42240",,(270) 887?7055,olivia.clark@christian.kyschools.us,,Christian,KOAP Open Record Req. GHs,Unknown,1
-87.3870979,36.8173612,,,Tentuck Farm,"2270 Old Edwards Mill Road, Hopkinsville, KY 42240",Travis Normile,,britandtravis@bellsouth.net,,Christian,Kentucky Proud Greenhouse Growers 2021,Unknown,0
-87.4886186,36.8656008,,,Hopkinsville-Christian County Downtown Farmers' Market,", Hopkinsville, KY 42240",Laura Faulkner,(270) 887-4285,lfaulkner@comdev-services.com,www.hopkinsvilleky.us/visitors/historic_hopkinsville/downtown_farmers_,Christian,Kentucky Proud Greenhouse Products 2021,Unknown,1
-87.303846,37.0348613,,,"Christian Way Farm, LLC","19590 Linville Road, Hopkinsville, KY 42240",Milton & Janie Corley,(270) 269-2434,christianwayfarm@gmail.com,www.christianwayfarm.com,Christian,Kentucky Proud Greenhouse Products 2021,Unknown,1
-87.3870979,36.8173612,,,Tentuck Farm,"2270 Old Edwards Mill Road, Hopkinsville, KY 42240",Travis Normile,,britandtravis@bellsouth.net,,Christian,Kentucky Proud Greenhouse Products 2021,Unknown,2
-87.3567604,36.855823,,,Hoovers Garden Patch,"615 Old Butler Road, Hopkinsville, KY 42240",Luke M. Hoover,,,,Christian,Kentucky Proud Greenhouse Products 2021,Unknown,2
-87.2767641,36.9434347,,,Prime Swine,"17700 Ovil Rd, Hopkinsville, KY 42240",Bobby Sailing,(270) 269-2375,dieselrepairman@gmail.com,,Christian,Kentucky Proud Greenhouse Products 2021,Unknown,1
-87.4775183,36.8594667,,,Plant Life Grow Miracles,"717 Hope Street, Hopkinsville, KY 42240",Morris Roebuck,(270) 889-8797,morris.roeb.282@gmail.com,,Christian,Kentucky Proud Greenhouse Products 2021,Unknown,1
-87.3823026,36.7504941,A,Yes,Aaron King Jr.,"2673 Pembroke Oak Grove Rd., Pembroke, KY 42266-",Aaron King Jr.,(270) 475-2160,,,Christian,Kentucky Nursery Licenses 2021-2022,Unknown,1
-87.31706,36.911475,A,Yes,Abram Zimmerman,"11070 Pilot Rock Rd., Hopkinsville, KY 42240-",Abram Zimmerman,,,,Christian,Kentucky Nursery Licenses 2021-2022,Unknown,1
-87.3386633,36.9123405,A,Yes,Alvin Weaver,"9980 Pilot Rock Rd, Hopkinsville, KY 42240-",Alvin Weaver,(270) 886-5858,,,Christian,Kentucky Nursery Licenses 2021-2022,Unknown,1
-87.3374238,36.9119904,A,Yes,Andrew and Amy Weaver,"9867 Pilot Rock Rd., Hopkinsville, KY 42240-",Andrew and Amy Weaver,(270) 886-6088,,,Christian,Kentucky Nursery Licenses 2021-2022,Unknown,1
-87.3555622,36.775878,A,Yes,Bloombright Greenhouse,"9744 US Hwy 68 E, Pembroke, KY 42266-",Eva Jane Snyder,,,,Christian,Kentucky Nursery Licenses 2021-2022,Unknown,1
-87.367643,36.671797,A,Yes,Breezy Knoll Produce,"3105 Carneal Lane, Oak Grove, KY 42262-",Amos Stoltzfoos,,,,Christian,Kentucky Nursery Licenses 2021-2022,Unknown,1
-87.4785241,36.9733693,A,Yes,Cindy's House Plant Haven,"7710 Madisonville Rd, Hopkinsville, KY 42240-",Cynthia Shelton,(270) 881-7336,cindyshouseplants@gmail.com,,Christian,Kentucky Nursery Licenses 2021-2022,Unknown,1
-87.359869,36.83336,A,Yes,Country Lane Nursery,"1195 Champion Hwy Ext, Pembroke, KY 42266-",Beth Snyder,(270) 425-2777,,,Christian,Kentucky Nursery Licenses 2021-2022,Unknown,1
-87.3834915,36.7457754,A,Yes,D&R Supplies,"1472 Pruitt Lane, Pembroke, KY 42266-",David Byler,(270) 475-2160,,,Christian,Kentucky Nursery Licenses 2021-2022,Unknown,1
-87.2627826,36.7239332,A,Yes,Daniel King Greenhouse,"528 Seay Rd., Trenton, KY 42286-",Daniel or Rachel King,(270) 466-5841,,,Christian,Kentucky Nursery Licenses 2021-2022,Unknown,1
-87.34297,36.8841816,A,Yes,Daniel M. Rissler,"9350 Butler Rd., Hopkinsville, KY 42240-",Daniel M. Butler,(270) 889-9877,,,Christian,Kentucky Nursery Licenses 2021-2022,Unknown,1
-87.3676289,36.703369,A,Yes,Daniel Miller,"1525 Barkers Mill Road, Pembroke, KY 42266-",Daniel Miller,,,,Christian,Kentucky Nursery Licenses 2021-2022,Unknown,1
-87.3305144,36.766822,A,Yes,David B. Glick,"10546 Pembroke Rd., Pembroke, KY 42266-",David B. Glick,(270) 475-9722,,,Christian,Kentucky Nursery Licenses 2021-2022,Unknown,1
-87.3555622,36.775878,A,Yes,Edwin or Esther Mae Burkholder,"2280 Fairview Vaughns Grove Rd., Pembroke, KY 42266-",Edwin Burkholder,(270) 881-9879,,,Christian,Kentucky Nursery Licenses 2021-2022,Unknown,1
-87.315804,36.859674,A,Yes,Ezra Zimmerman,"1472 Vaughns Grove Fairview Rd, Pembroke, KY 42266-",Ezra Zimmerman,(270) 890-0117,,,Christian,Kentucky Nursery Licenses 2021-2022,Unknown,1
-87.3976783,36.8271679,A,Yes,Hackberry Lane Greenhouse,"5528 Old Edwards Mill Rd, Hopkinsville, KY 42240-",Harlan Hoover,(270) 887-6786,,,Christian,Kentucky Nursery Licenses 2021-2022,Unknown,1
-87.5652907,36.7336584,A,Yes,Hannah Stoltzfus,"12163 Oak Grove Rd., Herndon, KY 42236-",Hannh Stoltzfus,,,,Christian,Kentucky Nursery Licenses 2021-2022,Unknown,1
-87.325895,36.897113,A,Yes,Happy Farm and Greenhouse,"3370 Monkey Norman Road, Hopkinsville, KY 42240-",John & Esther Zimmerman,(270) 889-5339,,,Christian,Kentucky Nursery Licenses 2021-2022,Unknown,1
-87.355535,36.71067,A,Yes,Henry S Stoltsfus,"1512 Long Lane, Pembroke, KY 42266-",Henry S. Stoltzfus,,,,Christian,Kentucky Nursery Licenses 2021-2022,Unknown,1
-87.4844231,37.033302,A,Yes,Homestead Greenhouse,"11945 S. Madisonville Rd., Crofton, KY 42217-",Jonathan Hostetler,(270) 424-0762,,,Christian,Kentucky Nursery Licenses 2021-2022,Unknown,1
-87.3567604,36.855823,A,Yes,Hoovers Garden Patch,"615 Old Butler Rd., Hopkinsville, KY 42240-",Luke Hoover,,,,Christian,Kentucky Nursery Licenses 2021-2022,Unknown,1
-87.442641,36.763795,A,Yes,Hosta Haven,"1710 Long Pond Road, Pembroke, KY 42266-",Bob Rust,(270) 885-4000,hostahaven@yahoo.com,,Christian,Kentucky Nursery Licenses 2021-2022,Unknown,1
-87.3850255,36.7701725,A,Yes,Jacob B. Stoltzfus,"5659 Long Pond Road, Pembroke, KY 42266-",Jacob Stoltzfus,,,,Christian,Kentucky Nursery Licenses 2021-2022,Unknown,1
-87.5240022,36.7364819,A,Yes,Jacob J. Stoltzfus,"4065 Millers Mill Rd., Oak Grove, KY 42262-",Jacob J. Stoltzfus,,,,Christian,Kentucky Nursery Licenses 2021-2022,Unknown,1
-87.331605,36.7840349,A,Yes,James and Ellen Nolt,"225 Bond Rd., Pembroke, KY 42266-",Ellen Nolt,(270) 475-2249,,,Christian,Kentucky Nursery Licenses 2021-2022,Unknown,1
-87.317648,36.857741,A,Yes,John Amzie Zimmerman,"1468 Vaughns Grove - Fairview Road, Pembroke, KY 42266-",John Amzie Zimmerman,(270) 887-0035,,,Christian,Kentucky Nursery Licenses 2021-2022,Unknown,1
-87.388638,36.767091,A,Yes,John S. King,"5324 Long Pond Rd., Pembroke, KY 42266-",John S. King,,,,Christian,Kentucky Nursery Licenses 2021-2022,Unknown,1
-87.7109535,36.9606552,A,Yes,Jonas Stoltzfoos,"407 Clarkstore Sinking Fork Road, Cerulean, KY 42215-",Jonas Stoltzfoos,(270) 890-1830,,,Christian,Kentucky Nursery Licenses 2021-2022,Unknown,1
-87.534089,36.725563,A,Yes,Lazy Acres Greenhouse,"10440 Palmyra Road, Oak Grove, KY 42262-",Salome Stoltzfus,,,,Christian,Kentucky Nursery Licenses 2021-2022,Unknown,1
-87.471356,36.934574,A,Yes,Lexington Landscape & Nursery,"4870 Old Madisonville Road, Hopkinsville, KY 42240-",Melanie Dew,(270) 985-0228,mmd4281@aol.com,,Christian,Kentucky Nursery Licenses 2021-2022,Unknown,1
-87.6244283,36.7468219,A,Yes,Little River Daylilies,"621 McCraw Rd., Herndon, KY 42236-",Katie Beiler,(270) 886-9621,,,Christian,Kentucky Nursery Licenses 2021-2022,Unknown,1
-87.55884,36.9049612,B,Yes,Magnolia Nursery,"5210 Princeton Road, Hopkinsville, KY 42240-",Debbie Cansler,(270) 886-3903,dcansler1@hotmail.com,,Christian,Kentucky Nursery Licenses 2021-2022,Unknown,1
-87.539107,36.716555,A,Yes,Maple Shade Greenhouse,"11028 Palmyra Rd., Oak Grove, KY 42262-",Fannie Stolzfus,(270) 707-7145,,,Christian,Kentucky Nursery Licenses 2021-2022,Unknown,1
-87.3732497,36.7284005,A,Yes,Martha Arvin,"4145 Pembroke Oak Grove Rd., Pembroke, KY 42266-",Martha Arvin,(270) 660-9493,martha.arvin@icloud.com,,Christian,Kentucky Nursery Licenses 2021-2022,Unknown,1
-87.513834,36.705732,A,Yes,Mary Fisher,"15617 Herndon Oak Grove, Oak Grove, KY 42262-",,,,,Christian,Kentucky Nursery Licenses 2021-2022,Unknown,1
-87.3301263,36.7800185,A,Yes,Matthew and Jenny Nolt,"399 Bond Road, Pembroke, KY 42266-",Matthew & Jenny Nolt,(270) 475-2345,,,Christian,Kentucky Nursery Licenses 2021-2022,Unknown,1
-87.4790076,36.8782947,A,Yes,Metcalfe Wholesale Florist,"120 Metcalfe Dr., Hopkinsville, KY 42240-",John Major,(270) 886-3391,,,Christian,Kentucky Nursery Licenses 2021-2022,Unknown,1
-87.3066388,36.7543411,A,Yes,Michael Fisher,"3390 Stokes Road, Pembroke, KY 42266-",Michael Fisher,(270) 265-2425,,,Christian,Kentucky Nursery Licenses 2021-2022,Unknown,1
-87.552516,36.762185,A,Yes,Nathan L. Zook,"5060 Striped Bridge Road, Hopkinsville, KY 42240-",Nathan Zook,(270) 885-1656,,,Christian,Kentucky Nursery Licenses 2021-2022,Unknown,1
-87.4010327,36.8272998,A,Yes,Nelson Hoover,"5254 Old Edwards Mill Rd., Hopkinsville, KY 42240-",Nelson Hoover,(270) 885-1343,,,Christian,Kentucky Nursery Licenses 2021-2022,Unknown,1
-87.303813,36.895164,A,Yes,Nelson Oberholtzer,"11810 Butler Rd., Hopkinsville, KY 42240-",Nelson Oberholtzer,(270) 885-8116,,,Christian,Kentucky Nursery Licenses 2021-2022,Unknown,1
-87.645025,36.687742,A,Yes,P&S Farms,"325 Flat Lick Ln, Herndon, KY 42236-",J.E. Pryor,(270) 985-0040,jepryor08@hotmail.com,,Christian,Kentucky Nursery Licenses 2021-2022,Unknown,1
-87.3130865,36.8843099,A,Yes,Paul Irvin Zimmerman,"1375 Jeff Adams Road, Pembroke, KY 42266-",Paul Irvin Zimmerman,(270) 889-0956,,,Christian,Kentucky Nursery Licenses 2021-2022,Unknown,1
-87.307886,36.855742,A,Yes,Paul S. Zimmerman,"360 Charlie Hurt Rd., Elkton, KY 42220-",Paul S. Zimmerman,(270) 886-3714,,,Christian,Kentucky Nursery Licenses 2021-2022,Unknown,1
-87.5652907,36.7336584,A,Yes,Peaceful Acres,"681 McGraw Rd, Herndon, KY 42236-",Rachel Smoker,(270) 886-9621,,,Christian,Kentucky Nursery Licenses 2021-2022,Unknown,1
-87.3823026,36.7504941,A,Yes,Pembroke Greenhouse,"2675 Pembroke Oak Grove Rd, Pembroke, KY 42266-",Aaron S King,(270) 475-2160,,,Christian,Kentucky Nursery Licenses 2021-2022,Unknown,1
-87.339173,36.9189859,A,Yes,Pine Knob Greenhouse,"9870 Pilot Rock Rd., Hopkinsville, KY 42240-",Aaron and Eva Leinbach,(270) 887-6198,,,Christian,Kentucky Nursery Licenses 2021-2022,Unknown,1
-87.542439,36.97617,A,Yes,Richard Tyler Durham,"12780 Old Palestine Rd., Crofton, KY 42217-",Richard Tyler Durham,(270) 348-2684,tylerdurham44@yahoo.com,,Christian,Kentucky Nursery Licenses 2021-2022,Unknown,1
-87.6580552,36.7532505,A,Yes,Riverside Coach Shop,"5538 Binns Mill Rd, Herndon, KY 42236-",John Stoltzfus,,,,Christian,Kentucky Nursery Licenses 2021-2022,Unknown,1
-87.5705394,36.899322,A,Yes,Robert Webb,"1675 Everett Lane, Hopkinsville, KY 42240-",,(270) 498-4592,rwebb3430@twc.com,,Christian,Kentucky Nursery Licenses 2021-2022,Unknown,1
-87.3758332,36.752017,A,Yes,Rolling Acres Produce and GH,"2479 Pembroke Oak Grove Rd., Pembroke, KY 42266-",Benjamin/Sarah Stoltzfus,(270) 475-1801,,,Christian,Kentucky Nursery Licenses 2021-2022,Unknown,1
-87.3999284,36.8209086,A,Yes,Roy Hoover,"5790 Old Edwards Mill Road, Hopkinsville, KY 42240-",Roy Hoover,(270) 475-4420,,,Christian,Kentucky Nursery Licenses 2021-2022,Unknown,1
-87.2988561,36.8558703,A,Yes,Sauder Farm Country Market,"959 Britmart Rd., Elkton, KY 42220-",Steven Sauder,(270) 885-1048,saudermarket@emypeople.net,,Christian,Kentucky Nursery Licenses 2021-2022,Unknown,1
-87.354929,36.83849,A,Yes,Snyders,"1190 Champion Hwy, Pembroke, KY 42266-",Loretta Snyder,(270) 475-2335,,,Christian,Kentucky Nursery Licenses 2021-2022,Unknown,1
-87.3304457,36.8110918,A,Yes,Southwind Greenhouses,"2670 Beeker Road, Pembroke, KY 42266-",Jason Nolt,(270) 475-3946,,,Christian,Kentucky Nursery Licenses 2021-2022,Unknown,1
-87.4102887,36.8386134,A,Yes,Sunnyside Greenhouse,"1220 Edward's Mill Rd., Hopkinsville, KY 42240-",Jethro Martin,,,,Christian,Kentucky Nursery Licenses 2021-2022,Unknown,1
-87.5016648,36.7297181,A,Yes,Sunset View Gardens,"2938 Millers Mill Road, Oak Grove, KY 42262-",Isaac Z. Stoltzfus,(270) 885-4816,,,Christian,Kentucky Nursery Licenses 2021-2022,Unknown,1
-87.3853676,36.8323815,A,Yes,The Bloomery,"2175 Little River Church Rd., Hopkinsville, KY 42240-",Mark and Tiffany Jenkins,(270) 604-5655,tiffany@thebloomeryKy.com,,Christian,Kentucky Nursery Licenses 2021-2022,Unknown,1
-87.3437931,36.9087898,A,Yes,Weaver Produce,"4550 Laytonsville Rd., Hopkinsville, KY 42240-8928",Noah M. Weaver,(270) 887-8935,,,Christian,Kentucky Nursery Licenses 2021-2022,Unknown,1
-87.332757,36.834683,A,Yes,Woodlawn Retreat,"9280 Champion Hwy, Pembroke, KY 42266-",Chris and Mary Ann Hoover,,,,Christian,Kentucky Nursery Licenses 2021-2022,Unknown,1
-84.139371,37.981142,,,Barnes Family Greenhouse,"2244 Irvine Road Winchester, Winchester, KY 40391","Ernest, Amy, or Debbie Barnes",,barnesfamilygreenhouse@yahoo.com (Bad email-DB,,Clark,Kentucky Proud Greenhouse Growers 2021,Unknown,1
-84.0698633,37.9984944,,,"Staton Ridge Farm, LLC","455 Davis Lane, Winchester, KY 40391",Julie Staton,(859) 808-1317,julielstaton@yahoo.com,,Clark,Kentucky Proud Greenhouse Growers 2021,Unknown,1
-84.1843314,37.9926297,,,Three Toads Farm- Mrs. Toad's Jam,"231 West Hickman St, Winchester, KY 40391",Elizabeth Hendricks,(859) 749-6120,elizabethbhendricks@gmail.com,www.threetoadsfarm.com,Clark,Kentucky Proud Greenhouse Growers 2021,Unknown,1
-84.2412156,38.0259511,,,"AVF Solutions, LLC dba Atalo","5855 Rockwell Rd., Winchester, KY 40391",Nick Horohov,(859) 559-4550,blepage@ataloholdings.com,www.ataloholdings.com,Clark,Kentucky Proud Greenhouse Growers 2021,Unknown,1
-84.1486867,38.0261425,,,Bush Gardens,"2791 Mt. Sterling Road, Winchester, KY 40391",Kyla Bush,,kyla_cropper@yahoo.com,,Clark,Kentucky Proud Greenhouse Growers 2021,Unknown,1
-84.2997313,37.9827286,,,Basin Springs Farm Lettuce,"1876 Combs Ferry Road, Winchester, KY 40391",Stuart Taylor,(859) 312-4884,stuartlexington@gmail.com,,Clark,Kentucky Proud Greenhouse Growers 2021,Unknown,1
-84.2142566,37.9612581,,No,Clark County FFA,"2745 Boonesboro Road, Winchester, KY 40391",Terra Pigg,(859) 744-6111,terra.pigg@clark.kyschools.us,,Clark,Kentucky Proud Greenhouse Growers 2021,Unknown,1
-84.253748,37.9036649,,,Bountiful Harvest,"1315 Ford Hampton Road, Winchester, KY 40391",Amanda Hall,(859) 808-0429,Amanda.hall1315@icloud.com,,Clark,Kentucky Proud Greenhouse Growers 2021,Unknown,1
-84.2260984,37.9442184,,,"Beech Springs Farm Market, LLC","4776 Old Boonesboro Road, Winchester, KY 40391",Mary Beth Hendricks,(859) 744-2868,mbhend27@yahoo.com,www.beechspringsfarmmarket.com,Clark,Kentucky Proud Greenhouse Products 2021,Unknown,1
-84.1796503,37.990079,,,Winchester-Clark County Farmers' Market,", Winchester, KY 40391",Jen Klinglesmith,,jklinglesmith1212@gmail.com,www.winchesterfarmersmarket.com,Clark,Kentucky Proud Greenhouse Products 2021,Unknown,1
-84.1821069,37.9873658,,,"Three Toads Farm, LLC","437 S Maple St, Winchester, KY 40391",Charlie Hendricks,,chendricks123@att.net,www.threetoadsfarm.com,Clark,Kentucky Proud Greenhouse Products 2021,Unknown,2
-84.137371,38.0754053,,,"Earth Star, Inc.","2220 Gay-Evans Road, Winchester, KY 40391",Edward Hartsell,(859) 737-2634,earthstarproducts@earthlink.net,,Clark,Kentucky Proud Greenhouse Products 2021,Unknown,1
-84.139371,37.981142,,,Barnes Family Greenhouse,"2244 Irvine Road Winchester, Winchester, KY 40391","Ernest, Amy, or Debbie Barnes",,barnesfamilygreenhouse@yahoo.com (Bad email-DB,,Clark,Kentucky Proud Greenhouse Products 2021,Unknown,2
-84.1732901,37.9973195,,,Sabrina's Plants and More,"37 Winn Ave, Winchester, KY 40391",Sabrina Toler,(859) 745-4745,tolerls@aol.com,,Clark,Kentucky Proud Greenhouse Products 2021,Unknown,1
-84.1796503,37.990079,,,Tommin Acres,"8755 Irvin Rd, Winchester, KY 40391",Minda Pearson,,aginsad@att.net,,Clark,Kentucky Proud Greenhouse Products 2021,Unknown,1
-84.2982652,37.9785727,,,Three Toads Farm,"2234 Combs Ferry Road, Winchester, KY 40391",Val Schirmer,(859) 229-9450,vschirmer3@gmail.com,www.threetoadsfarm.com,Clark,Kentucky Proud Greenhouse Products 2021,Unknown,2
-84.0698633,37.9984944,,,"Staton Ridge Farm, LLC","455 Davis Lane, Winchester, KY 40391",Julie Staton,(859) 808-1317,julielstaton@yahoo.com,,Clark,Kentucky Proud Greenhouse Products 2021,Unknown,2
-84.1486867,38.0261425,,,Bush Gardens,"2791 Mt. Sterling Road, Winchester, KY 40391",Kyla Bush,,kyla_cropper@yahoo.com,,Clark,Kentucky Proud Greenhouse Products 2021,Unknown,2
-84.2997313,37.9827286,,,Basin Springs Farm Lettuce,"1876 Combs Ferry Road, Winchester, KY 40391",Stuart Taylor,(859) 312-4884,stuartlexington@gmail.com,,Clark,Kentucky Proud Greenhouse Products 2021,Unknown,2
-84.110639,38.0113429,,,Fallis Family Farm,"3070 Ecton Road, Winchester, KY 40391",Karen Fallis,(859) 533-1258,kandk.fallis@gmail.com,,Clark,Kentucky Proud Greenhouse Products 2021,Unknown,1
-84.2142566,37.9612581,,,Clark County FFA,"2745 Boonesboro Road, Winchester, KY 40391",Terra Pigg,(859) 744-6111,terra.pigg@clark.kyschools.us,,Clark,Kentucky Proud Greenhouse Products 2021,Unknown,3
-84.093819,38.0171203,,,Wanglerhof Farm,"1045 Little Stoner Rd, Winchester, KY 40391",Amanda Wangler,,amandawangler1@gmail.com,,Clark,Kentucky Proud Greenhouse Products 2021,Unknown,1
-84.253748,37.9036649,,,Bountiful Harvest,"1315 Ford Hampton Road, Winchester, KY 40391",Amanda Hall,(859) 808-0429,Amanda.hall1315@icloud.com,,Clark,Kentucky Proud Greenhouse Products 2021,Unknown,2
-84.2230836,37.9444659,A,Yes,"Al's Landscape Contractors, LLC","235 Flanagan Station Rd., Winchester, KY 40391-",Charles Hubbard,(859) 744-4840,alslandscape@hotmail.com,,Clark,Kentucky Nursery Licenses 2021-2022,Unknown,1
-84.116197,38.026545,B,Yes,"Hatton's Landscaping, Inc.","376 Cabin Creek Road, Winchester, KY 40391-","William Hatton, Jr.",(859) 744-1415,williamjrhatton@bellsouth.net,,Clark,Kentucky Nursery Licenses 2021-2022,Unknown,1
-84.1560648,38.0010827,A,Yes,Kovalic Christmas Tree Farm,"487 Ecton Road, Winchester, KY 40391-",Peter Kovalic,(859) 744-2930,peter.kovalic@me.com,,Clark,Kentucky Nursery Licenses 2021-2022,Unknown,1
-84.2142566,37.9612581,,No,George Rogers Clark High School,"2745 Boonesboro Road, Winchester, KY 40391","Derek Knight, Terra Pigg, Shane Wiseman, Kyle Porter",,"derek.knight@clark.kyschools.us, terra.pigg@clark.kyschools.us, shane.wiseman@kyschools.us, kyle.porter@kyschools.us",,Clark,"Ag FFA Instructors, POWER counties",Unknown,2
-83.6501792,37.2678661,,No,Oneida Baptist Institute,"11 Mulberry St, Oneida, KY 40972",Martha Taylor & Marty Bevil,(606) 847-4111,martha.taylor@oneidaschool.org,www.oneidaschool.org,Clay,Kentucky Proud Greenhouse Growers 2021,Unknown,1
-83.7696452,37.1401495,,,Clay County Community Farmers' Market,"86 Muddy Gap Road, Manchester, KY 40962",Leah Cornett,(606) 598-8407,leahcornett@yahoo.com,www.facebook.com/claycountycommunityfarmersmarket,Clay,Kentucky Proud Greenhouse Products 2021,Unknown,1
-83.823428,37.2762079,,,Lunsford Farm,"10993 N Hwy 421, Manchester, KY 40962",Tim Lunsford,(606) 598-8032,thomas033@windstream.net,,Clay,Kentucky Proud Greenhouse Products 2021,Unknown,1
-83.7618641,37.1537007,A,Yes,Tim Gray,"3209 Hwy 1524, Manchester, KY 40962-",Tim Gray,(606) 598-2548,timgray9796@gmail.com,,Clay,Kentucky Nursery Licenses 2021-2022,Unknown,1
-83.6534621,37.2689163,,No,Oneida Baptist Institute,"P.O. Box 67, Oneida, KY 40972","Christa Bevil, Marty Bevil",,"christa.bevil@oneidaschool.org, marty.bevil@oneidaschool.org",,Clay,"Ag FFA Instructors, POWER counties",Unknown,2
-85.1895563,36.7145991,A,Yes,CAZ Plants and More,"2970 Old Burkesville Rd, Albany, KY 42602-",Matthew Glen Ford,(606) 688-6077,mford4712@gmail.com,,Clinton,Kentucky Nursery Licenses 2021-2022,Unknown,1
-85.1322158,36.7094468,,No,Clinton County High School,"65 High School Drive, Albany, KY 42602",Ben Prewitt,,ben.prewitt@clinton.kyschools.us,,Clinton,"Ag FFA Instructors, POWER counties",Unknown,1
-88.0910684,37.3305684,A2014?0087,No,Crittenden County Board of Education,"519 1/2 West Gum Street, Marion, KY 42064",,(270) 962?2248,Larry.Duvall@crittenden.kyschools.us jessica.cummins@crittenden.kyschools.us,,Crittenden,KOAP Open Record Req. GHs,Unknown,1
-88.0910684,37.3305684,A2010?0168,No,Crittenden County Board of Education,"519 1/2 West Gum Street, Marion, KY 42064",,(270) 962?2248,Larry.Duvall@crittenden.kyschools.us jessica.cummins@crittenden.kyschools.us,,Crittenden,KOAP Open Record Req. GHs,Unknown,2
-88.125414,37.407057,,,Rosehill Greenhouse,"6683 State Route 91 North, Marion, KY 42064",Karen Cook,,dnbcook@yahoo.com,,Crittenden,Kentucky Proud Greenhouse Growers 2021,Unknown,1
-88.0811349,37.3328286,,,Imogene Stout Market on Main (Previously called Market on Main),", Marion, KY 42064",Michele Edward,(270) 965-5015,michele@marionkentucky.org,,Crittenden,Kentucky Proud Greenhouse Products 2021,Unknown,1
-88.0416709,37.304328,,,Rusty Gate Farms,"700 Hunt Road, Marion, KY 42064",Jessica Cummins,,jdscummins@gmail.com,www.rustygatefarms.com,Crittenden,Kentucky Proud Greenhouse Products 2021,Unknown,1
-88.125414,37.407057,,,Rosehill Greenhouse,"6683 State Route 91 North, Marion, KY 42064",Karen Cook,,dnbcook@yahoo.com,,Crittenden,Kentucky Proud Greenhouse Products 2021,Unknown,2
-88.146171,37.427444,,,Hagan's Heritage Farm,"4025 Aunt Jane Tabernacle Road, Marion, KY 42064",Steffanie Hagan,(270) 635-5749,hagansheritagefarm@yahoo.com,,Crittenden,Kentucky Proud Greenhouse Products 2021,Unknown,1
-88.0811349,37.3328286,A,Yes,Beachy's Mums & Greenhouse,"2870 S.R. 654 N, Marion, KY 42064-",Johnny Byler,,,,Crittenden,Kentucky Nursery Licenses 2021-2022,Unknown,1
-88.0811349,37.3328286,A,Yes,Detweiler's Greenhouses,"1337 State Route 654 N, Marion, KY 42064-",Reuben Detiweiler,,,,Crittenden,Kentucky Nursery Licenses 2021-2022,Unknown,1
-88.0714403,37.4145876,A,Yes,Yoder's Greenhouse,"942 Yoder Rd., Marion, KY 42064-",Monroe Yoder,,,,Crittenden,Kentucky Nursery Licenses 2021-2022,Unknown,1
-85.3618256,36.7996602,A2007?0003,No,Cumberland County Board of Education,"912 N. Main St., Burkesville, KY 42717",,(270) 864?3451,lannie.willen@cumberland.kyschools.us,,Cumberland,KOAP Open Record Req. GHs,Unknown,1
-85.3618256,36.7996602,A2007?0129,No,Cumberland County Board of Education,"912 N. Main St., Burkesville, KY 42717",,(270) 864?3451,lannie.willen@cumberland.kyschools.us,,Cumberland,KOAP Open Record Req. GHs,Unknown,2
-85.3784493,36.7558011,,,Black Sheep Ranch,"1865 Celina Rd, Burkesville, KY 42717",Gregory Williams,(270) 433-7400,zekewood@duo-county.com,www.zekewood.com,Cumberland,Kentucky Proud Greenhouse Products 2021,Unknown,1
-85.3528259,36.8263813,,,Scott Farms,"204 Scotts River Drive, Burkesville, KY 42717",Chris T. Scott,(270) 459-1469,christscott1972@gmail.com,,Cumberland,Kentucky Proud Greenhouse Products 2021,Unknown,1
-85.3705186,36.7903399,,,Burkesville Farmers' Market,", Burkesville, KY 42717",Kay Williams,(270) 433-7400,cumberland.k@gmail.com,www.facebook.com/cumberlandcountyfood/,Cumberland,Kentucky Proud Greenhouse Products 2021,Unknown,1
-85.4921836,36.7521585,,,Reids Farm,"135 Margie Spears Rd, Burkesville, KY 42717",Leo or Kaye Reid,(270) 433-5728,kayereid1@hotmail.com,,Cumberland,Kentucky Proud Greenhouse Products 2021,Unknown,1
-85.3618256,36.7996602,,No,Cumberland County High School,"912 North Main Street, Burkesville, KY 42717",Lannie Willen,,lannie.willen@cumberland.kyschools.us,,Cumberland,"Ag FFA Instructors, POWER counties",Unknown,1
-87.084868,37.7301829,A2013?0053,No,Daviess County High School,"4255 New Hartford, Road Owensboro, KY 42303",,(270) 852?7300,chad.askins@daviess.kyschools.us,,Daviess,KOAP Open Record Req. GHs,Unknown,1
-87.1278223,37.7590988,A2021?0072,No,"Owensboro Catholic High School, Inc.","1524 West Parrish Avenue, Owensboro, KY 42301",,(270) 686?8896,Debbie.james@owensborocatholic.org,,Daviess,KOAP Open Record Req. GHs,Unknown,1
-87.0830441,37.7150767,A2003?0614,No,Owensboro Community and Technical College,"4800 New Hartford Road, Owensboro, KY 42303",,(270) 686?3790,scott.williams@kctcs.edu,,Daviess,KOAP Open Record Req. GHs,Unknown,1
-87.0830441,37.7150767,A2002?0368,No,Owensboro Community and Technical College,"4800 New Hartford Road, Owensboro, KY 42303",,(270) 686?3790,scott.williams@kctcs.edu,,Daviess,KOAP Open Record Req. GHs,Unknown,2
-87.1487871,37.7627384,,,"Settles Family Farms, LLC","1136 Carter Rd., Owensboro, KY 42301",Martin Settles,(270) 929-0576,msettlesjr@hotmail.com,,Daviess,Kentucky Proud Greenhouse Growers 2021,Unknown,1
-87.198049,37.720205,,,Thomas Aquafarms,"4541 Wayne Bridge Road, Owensboro, KY 42301",Eric Thomas,(270) 903-0338,Thomasaquafarms@gmail.com,www.ThomasAquafarms.com,Daviess,Kentucky Proud Greenhouse Growers 2021,Unknown,1
-86.9467034,37.6397197,,,Cook's Greenhouses,"8950 Highway 762, Philpot, KY 42366",Dana Cook,(270) 275-2838,bdcook0331@yahoo.com,,Daviess,Kentucky Proud Greenhouse Growers 2021,Unknown,1
-86.985933,37.729644,,,Marlene's Garden Center,"6264 Old Highway 54, Philpot, KY 42366",Marlene Hamilton,(270) 729-4594,marlenehamilton@roadrunner.com,marlene-sgardencenter.facebook,Daviess,Kentucky Proud Greenhouse Growers 2021,Unknown,1
-87.0338766,37.6107209,,,Sands Farms,"2545 Kentucky 140 East, Utica, KY 42376",Austin Sands,,austinsnds1@gmail.com,,Daviess,Kentucky Proud Greenhouse Growers 2021,Unknown,1
-86.8804816,37.6812032,,,A & G Garden Center,"9770 Oak Street, Whitesville, KY 42378",Greg Beyke,(270) 929-3846,abgbeyke@aol.com,,Daviess,Kentucky Proud Greenhouse Growers 2021,Unknown,1
-87.1450948,37.7766338,,,Western Kentucky Botanical Garden,"25 Carter Road, Owensboro, KY 42301",Dr. Bill Tyler,(270) 993-1234,wkbg@bellsouth.net,www.wkbg.org,Daviess,Kentucky Proud Greenhouse Products 2021,Unknown,1
-87.3024287,37.6696491,,,Cecil Farms Produce Delivery,"8753 & 9408 Mulligan Road, Owensboro, KY 42301",Suzanne Cecil White,(270) 929-1445,suzannececilwhite@gmail.com,www.cecilfarmspd.com,Daviess,Kentucky Proud Greenhouse Products 2021,Unknown,1
-87.198049,37.720205,,,Thomas Aquafarms,"4541 Wayne Bridge Road, Owensboro, KY 42301",Eric Thomas,(270) 903-0338,Thomasaquafarms@gmail.com,www.ThomasAquafarms.com,Daviess,Kentucky Proud Greenhouse Products 2021,Unknown,2
-87.0418569,37.790151,,,Reid's Orchard,"4818 Highway 144, Owensboro, KY 42303",Billy Reid,(270) 685-2444,kathy@reidorchard.com; valerie@reidorchard.com,www.reidorchard.com,Daviess,Kentucky Proud Greenhouse Products 2021,Unknown,1
-87.0424393,37.750555,,,Owensboro Regional Farmers' Market,", Owensboro, KY 42303",Jim Gilles,(270) 929-0558,owensbororfm@gmail.com,www.owensbororegionalfarmersmarket.org/,Daviess,Kentucky Proud Greenhouse Products 2021,Unknown,1
-86.9467034,37.6397197,,,Cook's Greenhouses,"8950 Highway 762, Philpot, KY 42366",Dana Cook,(270) 275-2838,bdcook0331@yahoo.com,,Daviess,Kentucky Proud Greenhouse Products 2021,Unknown,2
-86.985933,37.729644,,,Marlene's Garden Center,"6264 Old Highway 54, Philpot, KY 42366",Marlene Hamilton,(270) 729-4594,marlenehamilton@roadrunner.com,marlene-sgardencenter.facebook,Daviess,Kentucky Proud Greenhouse Products 2021,Unknown,2
-86.9552854,37.617997,,,Earl Nash,"4140 Crane Pond Road, Philpot, KY 42366",Earl Or Sally Nash,(270) 275-4166,garynash32@gmail.com,,Daviess,Kentucky Proud Greenhouse Products 2021,Unknown,1
-86.972352,37.673859,,,Pj's Flowers And Vegetables,"7171 State Route 762, Philpot, KY 42366",Patricia Alsip,(270) 485-3267,da0pa@yahoo.com,,Daviess,Kentucky Proud Greenhouse Products 2021,Unknown,1
-87.114616,37.631991,,,Trunnell's Farm Market,"9255 Us Hwy 431, Utica, KY 42376",Kevin Trunnell,(270) 733-2222,trunnellsfarmmarket@gmail.com,www.trunnellsfarmmarket.com,Daviess,Kentucky Proud Greenhouse Products 2021,Unknown,1
-86.90828,37.639031,,,Edge Farms,"6701 Deserter Creek Road, Whitesville, KY 42378",Dalsota Edge,(270) 233-9020,edged@rocketmail.com,,Daviess,Kentucky Proud Greenhouse Products 2021,Unknown,1
-86.8804816,37.6812032,,,A & G Garden Center,"9770 Oak Street, Whitesville, KY 42378",Greg Beyke,(270) 929-3846,abgbeyke@aol.com,,Daviess,Kentucky Proud Greenhouse Products 2021,Unknown,2
-86.9467034,37.6397197,A,Yes,Cook's Greenhouse,"8950 Highway 762, Philpot, KY 42366-",James & Danna Cook,(270) 275-2838,bdcook0331@yahoo.com,,Daviess,Kentucky Nursery Licenses 2021-2022,Unknown,1
-86.947746,37.803354,A,Yes,Hill Top Tree Farm,"8023 Mt. Zion Church Road, Knottsville, KY 42366-",Dennis Duke,(270) 686-7249,skgduke@bellsouth.net,,Daviess,Kentucky Nursery Licenses 2021-2022,Unknown,1
-87.0904989,37.741356,B,Yes,"Integrity Lawn Care, Inc.","1100 Burlew Blvd., Owensboro, KY 42303-",Mark Thompson,(270) 684-4959,charlotte@integrityoutdoorliving.com,,Daviess,Kentucky Nursery Licenses 2021-2022,Unknown,1
-86.9727438,37.7466388,A,Yes,Paul Curtis Berry,"5573 Pleasant Point Rd, Philpot, KY 42366-",Paul Curtis Berry,(270) 929-5869,6berrys@att.net,,Daviess,Kentucky Nursery Licenses 2021-2022,Unknown,1
-86.9425817,37.863297,A,Yes,Peggy's Greenhouse,"11461 Hwy 662, Lewisport, KY 42351-",Earl & Peggy Castlen,(270) 264-1681,earl.castlen@gmail.com,,Daviess,Kentucky Nursery Licenses 2021-2022,Unknown,1
-87.1358776,37.7606789,A,Yes,Roberts Asphalt and Excavating Inc,"1410 Smith Ave., Owensboro, KY 42301-",Phil Roberts Jr.,(270) 689-9292,,,Daviess,Kentucky Nursery Licenses 2021-2022,Unknown,1
-87.128592,37.7268528,A,Yes,Watkins Nursery Inc.,"1224 Goetz Road, Owensboro, KY 42301-",Bruce Watkins,(270) 683-5672,,,Daviess,Kentucky Nursery Licenses 2021-2022,Unknown,1
-86.2036788,37.1528421,,,Mammoth Cave Transplants,"5394 Brownsville Road, Brownsville, KY 42210",Janet Dennison,(270) 597-2533,jandave439@windstream.net,www.mammothcavetransplants.net,Edmonson,Kentucky Proud Greenhouse Growers 2021,Unknown,1
-86.2746778,37.3117793,,,Willow Wodd Farms,"10226 Hwy 259 North, Bee Spring, KY 42207",Aaron Decker,(270) 286-4275,aaron.decker.2016@gmail.com,,Edmonson,Kentucky Proud Greenhouse Products 2021,Unknown,1
-86.2036788,37.1528421,,,Mammoth Cave Transplants,"5394 Brownsville Road, Brownsville, KY 42210",Janet Dennison,(270) 597-2533,jandave439@windstream.net,www.mammothcavetransplants.net,Edmonson,Kentucky Proud Greenhouse Products 2021,Unknown,2
-86.2523649,37.1936543,,No,Edmonson County High School,"220 Wildcat Way, Brownsville, KY 42210","Bruce Lindsey, Matthew Lindsey",,"bruce.lindsey@edmonson.kyschools.us, matthew.lindsey@edmonson.kyschools.us",,Edmonson,"Ag FFA Instructors, POWER counties",Unknown,1
-86.2036788,37.1528421,,Yes,"Mammoth Cave Transplants, Inc.","5394 Brownsville Rd, Brownsville, KY 42210",David and Janet Dennison,5025972533,,,Edmonson,KGA Commercial Directory,Unknown,3
-83.1252765,38.0865442,A2022?0103,No,Elliott County Board of Education,"P.O. Box 687 Sandy Hook, KY 41171",,(606) 738?8002,debbie.stephens@elliott.kyschools.us makayla.rose@elliott.kyschools.us,,Elliott,KOAP Open Record Req. GHs,Unknown,1
-83.1252765,38.0865442,A2008?0059,No,Elliott County Board of Education,"P.O. Box 687 Sandy Hook, KY 41171",,(606) 738?8002,debbie.stephens@elliott.kyschools.us makayla.rose@elliott.kyschools.us,,Elliott,KOAP Open Record Req. GHs,Unknown,2
-83.2108485,38.0309746,,,Little Apple Bits Farm,"2811 Neal Howard Creek Road, Sandy Hook, KY 41171",Chelsea Eirich,,chelsea.eirich@gmail.com,,Elliott,Kentucky Proud Greenhouse Products 2021,Unknown,1
-83.129581,38.0847833,,No,Elliott County High School,"353 South KY 7, Sandy Hook, KY 41171",MaKayla Rose,,makayla.rose@elliott.kyschools.us,,Elliott,"Ag FFA Instructors, POWER counties",Unknown,1
-83.9946137,37.8203853,,,Emerald Lake Farm,"2065 Lilly Ferry Road, Irvine, KY 40336",Thomas L Britz,,tlbelf@yahoo.com,,Estill,Kentucky Proud Greenhouse Growers 2021,Unknown,1
-83.9936663,37.7010239,,,K And D Honey,"158 Bond St, Irvine, KY 40336",Mark Trimble,(606) 723-9409,matrimble512@yahoo.com,,Estill,Kentucky Proud Greenhouse Growers 2021,Unknown,1
-83.9172323,37.6019665,,,Hidden Holler Farm,"735 Searcy Branch Spur, Irvine, KY 40336",Ashley And John Stevenson,(606) 723-0519,Ashley_stevenson@live.com,,Estill,Kentucky Proud Greenhouse Growers 2021,Unknown,1
-83.973813,37.700638,,,Estill County Farmers' Market,", Irvine, KY 40336",Diane Johnson,(606) 723-1109,estillcountyfarmersmarket@gmail.com,www.facebook.com/estillcountyfarmersmarket,Estill,Kentucky Proud Greenhouse Products 2021,Unknown,1
-83.9946137,37.8203853,,,Emerald Lake Farm,"2065 Lilly Ferry Road, Irvine, KY 40336",Thomas L Britz,,tlbelf@yahoo.com,,Estill,Kentucky Proud Greenhouse Products 2021,Unknown,2
-83.929963,37.6000031,,,Arvin Farm,"2805 Jakes Heavenly Highway, Irvine, KY 40336",Amy Arvin,(606) 723-9310,amyjarvin19@gmail.com,,Estill,Kentucky Proud Greenhouse Products 2021,Unknown,1
-83.976929,37.647643,,,Old Arvin Homeplace,"3225 McKee Road, Irvine, KY 40336",Lisa Bicknell,(606) 723-3402,lisarb1@live.com,,Estill,Kentucky Proud Greenhouse Products 2021,Unknown,1
-83.9910131,37.6906537,,,Chaney's Farm,"504 Wisemantown Road, Irvine, KY 40336",Barbara Chaney,(859) 556-3212,aoc-bjc@hotmail.com,,Estill,Kentucky Proud Greenhouse Products 2021,Unknown,1
-83.8421945,37.6337286,,,Horn Holler Homestead,"2598 Old Landing Road, Irvine, KY 40336",,(606) 726-0559,hornhollerhomestead@outlook.com,,Estill,Kentucky Proud Greenhouse Products 2021,Unknown,1
-83.9552593,37.627536,,,Flynn Farms,"5330 McKee Road, Irvine, KY 40336",Angela Flynn,(606) 723-2758,aflynn@windstream.net,,Estill,Kentucky Proud Greenhouse Products 2021,Unknown,1
-84.0181262,37.798569,,,Woodward Creek Farm,"1120 Hargett Rd, Irvine, KY 40336",Jared Cox,(606) 975-0939,momofjanda83@gmail.com,,Estill,Kentucky Proud Greenhouse Products 2021,Unknown,1
-83.9172323,37.6019665,,,Hidden Holler Farm,"735 Searcy Branch Spur, Irvine, KY 40336",Ashley And John Stevenson,(606) 723-0519,Ashley_stevenson@live.com,,Estill,Kentucky Proud Greenhouse Products 2021,Unknown,2
-83.9770591,37.8334312,,,Gathering Rust,"396 Hudson Mill Road, Irvine, KY 40336",Traci Rust,(859) 661-8421,tracileewoorust@gmail.com,www.facebook.com/gatheringrusthobbyfarm/,Estill,Kentucky Proud Greenhouse Products 2021,Unknown,1
-83.8321071,37.6644009,,,Misty Mountain Farm,"450 Beattyville Road, Ravenna, KY 40472",Kimber Lainhart,(606) 723-7851,nikichaney@gmail.com,,Estill,Kentucky Proud Greenhouse Products 2021,Unknown,1
-84.0039969,37.6761693,A,Yes,Bicknell Farms,"199 Red Lick Rd., Irvine, KY 40336-",James M Bicknell,(606) 975-1227,bick11@juno.com,,Estill,Kentucky Nursery Licenses 2021-2022,Unknown,1
-83.9890099,37.735973,,No,Estill County High School,"397 Engineer Road, Irvine, KY 40336",Lynn Miller,,lynn.miller@estill.kyschools.us,,Estill,"Ag FFA Instructors, POWER counties",Unknown,1
-84.4493257,37.9829884,,,"Irie Hills Farm, LLC","1000 Fog Ct, Lexington, KY 40515",Matthew Wegner,(859) 533-3342,,,Fayette,Kentucky Proud Greenhouse Growers 2021,Unknown,1
-84.3063094,37.9124466,,,Barnes Family Farm,"895 Sidwell Lane, Lexington, KY 40515",Debbie A. Barnes,(859) 333-9488,debbiebarnesflowers@yahoo.com,,Fayette,Kentucky Proud Greenhouse Growers 2021,Unknown,1
-84.580598,38.131634,,,"Bluegrass Botanicals, LLC","1000 Falcon Wood Way, Lexington, KY 40511",Kimberly Meier,(859) 259-0030,kmeier129@gmail.com,,Fayette,Kentucky Proud Greenhouse Growers 2021,Unknown,1
-84.3634672,37.9870758,,,White's Greenhouse,"1515 N Cleveland Rd, Lexington, KY 40509",Larry White,,Bj.white831@gmail.com,,Fayette,Kentucky Proud Greenhouse Growers 2021,Unknown,1
-84.4861031,38.0345164,,,"Supergrow, LLC","723 Central Avenue, Lexington, KY 40502",James Massa,(202) 780-9323,,,Fayette,Kentucky Proud Greenhouse Growers 2021,Unknown,1
-84.571023,38.1060616,,No,Locust Trace Agriscience Center,"3591 Leestown Road, Lexington, KY 40511",Anne DeMott,(859) 381-3990,anne.demott@fayette.kyschools.us,www.locusttrace.fcps.net,Fayette,Kentucky Proud Greenhouse Growers 2021,Unknown,1
-84.58422,38.1099435,,,Two Brothers Garden Center,"4000 Leestown Road, Lexington, KY 40510",Joshua Lawrence,(859) 254-4920,TWOCRAZYJACKS@GMAIL.COM,,Fayette,Kentucky Proud Greenhouse Growers 2021,Unknown,2
-84.364488,37.949893,,,"Garden Girls, LLC","6371 Athens Boonsboro Road, Lexington, KY 40509",Anne Windland,(859) 539-2277,lexgardengirls@gmail.com,,Fayette,Kentucky Proud Greenhouse Growers 2021,Unknown,1
-84.5015255,37.9930967,,,"Tomatoes, Etc.","751 Kirkland Dr, Lexington, KY 40502",Roger H. Postley,(859) 278-4846,rpostley@aol.com,,Fayette,Kentucky Proud Greenhouse Products 2021,Unknown,1
-84.4993107,38.0229346,,,"Heartwood Provisions, LLC","1250 Scoville Road, Lexington, KY 40502",Polly Symons,(859) 221-8301,polly.elizabeth.symons@gmail.com,,Fayette,Kentucky Proud Greenhouse Products 2021,Unknown,1
-84.496682,37.9950759,,,Louis Flower Power Shop,"3371 Tates Creek Rd, Lexington, KY 40502",Beau Spicer,(859) 266-6889,beausflowerqa@yahoo.com,,Fayette,Kentucky Proud Greenhouse Products 2021,Unknown,1
-84.4861031,38.0345164,,,"Supergrow, LLC","723 Central Avenue, Lexington, KY 40502",James Massa,(202) 780-9323,,,Fayette,Kentucky Proud Greenhouse Products 2021,Unknown,2
-84.485507,38.013412,,,Chevy Chase Farmers' Market,", Lexington, KY 40502",Jessica Morris,,farmersoncolony@gmail.com,www.facebook.com/Chevy-Chase-Farmers-Market-1601213506822092/,Fayette,Kentucky Proud Greenhouse Products 2021,Unknown,1
-84.527011,38.0199254,,,Good Foods Co-op,"455 Southland Drive, Lexington, KY 40503",Lauren Gawthrop,(859) 278-1813,laureng@goodfoods.coop,www.goodfoods.coop,Fayette,Kentucky Proud Greenhouse Products 2021,Unknown,1
-84.518348,38.03933,,,Meadowbloom Farm,"1054 Duncan Ave, Lexington, KY 40504",Sandra Noble Canon,(859) 576-5924,cscanon@insightbb.com,,Fayette,Kentucky Proud Greenhouse Products 2021,Unknown,1
-84.493477,38.048208,,,Farm Of The Day,"114 Constitution Street, Lexington, KY 40507",David Parker,(859) 428-7780,farmoftheday@farmoftheday.com,www.farmoftheday.com,Fayette,Kentucky Proud Greenhouse Products 2021,Unknown,1
-84.4951525,38.0382355,,,"Michler's Florist, Greenhouses & Garden Design","417 East Maxwell Street, Lexington, KY 40508",Claudia Michler,(859) 254-0383,flora@michlers.com,www.michlers.com,Fayette,Kentucky Proud Greenhouse Products 2021,Unknown,2
-84.5091102,38.0488113,,,Lexington Farmers' Market,", Lexington, KY 40508",Josh England,(859) 608-2655,info@lexingtonfarmersmarket.com,www.lexingtonfarmersmarket.com,Fayette,Kentucky Proud Greenhouse Products 2021,Unknown,1
-84.48209,38.0582452,,,Black Soil Our Better Nature,"105 West Loudon Avenue, Lexington, KY 40508",Ashley C. Smith,(859) 785-1800,info@blacksoilky.com,www.blacksoilky.com,Fayette,Kentucky Proud Greenhouse Products 2021,Unknown,1
